id,network_code,station_code,location_code,channels,latitude,longitude,elevation,start_date,end_date
CI.ABL.,CI,ABL,,EHZ,34.84845,-119.22497,1975.0,1976.205,2020.105
CI.ACP.,CI,ACP,,"HHN,BHE,HHZ,HHE,BHZ,BHN",32.9546,-116.30338,392.2,2014.365,3000.001
CI.ADL.,CI,ADL,,EHZ,34.55581,-117.41804,868.0,1975.042,1997.045
CI.ADO.,CI,ADO,,"HHN,BHE,HHZ,HHE,BHZ,BHN",34.55046,-117.43391,908.0,2000.222,3000.001
CI.AGA.,CI,AGA,,"HHN,BHE,HHZ,HHE,BHZ,BHN",33.63838,-116.4011,809.0,1999.320,2005.131
CI.AGM.,CI,AGM,,"BHE,HHN,HHZ,HHE,BHZ,BHN,EHZ",32.84474,-114.78425,324.0,2017.156,3000.001
CI.AGO.,CI,AGO,,EHZ,34.14647,-118.76699,259.0,1995.297,3000.001
CI.ALP.,CI,ALP,,"HHN,BHE,HHZ,HHE,BHZ,BHN",34.68708,-118.29946,753.0,1999.278,3000.001
CI.ALV.,CI,ALV,,EHZ,35.06172,-116.62887,640.0,1999.201,2015.120
CI.AMS.,CI,AMS,,EHZ,33.1414,-115.25493,148.8,1973.115,1990.194
CI.ANG.,CI,ANG,,"HHN,BHE,HHZ,HHE,BHZ,BHN",33.503277,-116.808391,1050.4,2022.140,3000.001
CI.APL.,CI,APL,,EHZ,35.34149,-116.87464,959.0,2016.312,3000.001
CI.ARB.,CI,ARB,,"EHE,EHN,EHZ",34.00431,-117.6054,221.7,1991.092,1991.183
CI.ARG.,CI,ARG,,EHZ,36.0837,-117.4806,2500.0,1996.338,2002.045
CI.ARV.,CI,ARV,,"BHE,HHN,HHZ,HHE,BHZ,BHN,EHZ",35.1269,-118.83009,258.0,1983.258,3000.001
CI.ASP.,CI,ASP,,EHZ,35.86114,-119.38511,64.0,2016.299,3000.001
CI.AVC.,CI,AVC,,EHZ,33.333118,-118.335424,0.0,2015.260,3000.001
CI.AVM.,CI,AVM,,"HHN,BHE,HHZ,HHE,BHZ,BHN",35.06562,-116.61549,708.5,2015.132,3000.001
CI.AZU.,CI,AZU,,"EHE,EHN,EHZ",34.2198,-117.90121,1140.0,1991.180,1992.183
CI.BAC.,CI,BAC,,EHZ,33.6122,-117.0406,551.0,1993.348,3000.001
CI.BAI.,CI,BAI,,"BHE,HHN,HHZ,HHE,BHZ,BHN,EHZ",34.77695,-118.77335,1035.0,2013.302,3000.001
CI.BAK.,CI,BAK,,"HHN,BHE,HHZ,HHE,BHZ,BHN",35.34444,-119.10445,116.0,1999.172,3000.001
CI.BAL.,CI,BAL,,EHZ,34.30764,-118.96713,258.0,1994.034,2014.132
CI.BAR.,CI,BAR,,"BHE,HHN,HHZ,HHE,EHE,EHN,BHZ,BHN,EHZ",32.68005,-116.67215,529.0,1932.248,3000.001
CI.BAT.,CI,BAT,,EHZ,33.45828,-115.84153,-53.0,1977.130,2014.135
CI.BAW.,CI,BAW,,"HHN,BHE,HHZ,HHE,BHZ,BHN",34.839348,-117.14943,732.3,2022.138,3000.001
CI.BBC.,CI,BBC,,EHZ,34.2417,-116.90914,2016.0,1951.175,1974.270
CI.BBR.,CI,BBR,,"HHN,BHE,HHZ,HHE,BHZ,BHN",34.2623,-116.92075,2069.0,2000.166,3000.001
CI.BBS.,CI,BBS,,"HHN,BHE,HHZ,HHE,BHZ,BHN",33.92139,-116.98058,785.0,2000.257,3000.001
CI.BC2.,CI,BC2,,EHZ,33.65702,-115.46202,995.0,1974.324,1992.185
CI.BC3.,CI,BC3,,"BHE,HHN,HHZ,HHE,BHZ,BHN,EHZ",33.65515,-115.45366,1137.0,1991.128,3000.001
CI.BCC.,CI,BCC,,"HHN,BHE,HHZ,HHE,BHZ,BHN",33.57508,-117.26119,391.0,2000.193,2005.220
CI.BCH.,CI,BCH,,EHZ,35.185337,-120.085057,1109.0,1976.227,2020.105
CI.BCK.,CI,BCK,,EHZ,32.72492,-115.04475,-6.0,1973.114,1981.060
CI.BCM.,CI,BCM,,EHZ,33.65539,-115.44877,1141.2,1993.349,1994.013
CI.BCW.,CI,BCW,,"HHN,BHE,HHZ,HHE,BHZ,BHN",34.94009,-119.41313,1101.0,2008.099,3000.001
CI.BEL.,CI,BEL,,"HHN,BHE,HHZ,HHE,BHZ,BHN",34.0006,-115.9982,1388.0,2001.074,3000.001
CI.BFS.,CI,BFS,,"HHN,BHE,HHZ,HHE,BHZ,BHN",34.23883,-117.65853,1312.0,2001.191,3000.001
CI.BHM.,CI,BHM,,EHZ,34.27886,-116.61597,1806.0,1974.091,1974.335
CI.BHP.,CI,BHP,,"HHN,BHE,HHZ,HHE,BHZ,BHN",33.99053,-118.36171,81.0,2009.140,3000.001
CI.BKR.,CI,BKR,,"HHN,BHE,HHZ,HHE,BHZ,BHN",35.2693,-116.0703,275.0,1996.288,2002.052
CI.BLA.,CI,BLA,,"HHN,BHE,HHZ,HHE,BHZ,BHN",34.06948,-116.38896,1243.0,2000.102,2009.006
CI.BLA2.,CI,BLA2,,"HHN,BHE,HHZ,HHE,BHZ,BHN",34.06931,-116.38993,1247.0,2009.217,3000.001
CI.BLC.,CI,BLC,,"BHE,HHN,HHZ,HHE,BHZ,BHN,EHZ",34.24356,-118.67312,607.0,1994.032,3000.001
CI.BLK.,CI,BLK,,EHZ,35.08867,-117.21975,619.0,1981.120,2014.045
CI.BLU.,CI,BLU,,EHZ,34.40686,-117.72778,1843.0,1975.043,1990.010
CI.BLY.,CI,BLY,,"HHN,BHE,HHZ,HHE,BHZ,BHN",33.7503,-114.52375,201.0,2004.313,3000.001
CI.BMM.,CI,BMM,,EHZ,33.75673,-114.58642,516.0,1975.001,1976.268
CI.BMT.,CI,BMT,,EHZ,35.13641,-118.59723,1200.0,1976.227,2002.121
CI.BOM.,CI,BOM,,"HHN,BHE,HHZ,HHE,BHZ,BHN",33.36465,-115.72963,-54.0,2009.041,3000.001
CI.BON.,CI,BON,,EHZ,32.69732,-115.26902,-14.0,1973.118,1996.250
CI.BOO.,CI,BOO,,EHZ,34.87632,-117.91109,671.0,1983.261,1993.008
CI.BOR.,CI,BOR,,"HHN,BHE,HHZ,HHE,BHZ,BHN",33.2682,-116.41716,252.0,2000.166,3000.001
CI.BPK.,CI,BPK,,EHZ,34.12472,-114.21041,457.0,1975.029,1977.028
CI.BRA.,CI,BRA,,EHZ,32.97899,-115.54936,-67.0,1988.214,1994.025
CI.BRE.,CI,BRE,,"HHN,BHE,HHZ,HHE,BHZ,BHN",33.80776,-117.98116,24.0,2000.056,3000.001
CI.BRG.,CI,BRG,,EHZ,33.17139,-116.1747,205.0,1981.090,1998.016
CI.BRS.,CI,BRS,,EHZ,33.97145,-116.91265,1075.0,1992.183,1994.023
CI.BRT.,CI,BRT,,EHZ,34.61206,-117.96354,757.0,1984.053,1993.038
CI.BSC.,CI,BSC,,EHZ,32.73028,-115.05111,43.0,1975.337,1982.338
CI.BTC.,CI,BTC,,"HHN,BHE,HHZ,HHE,BHZ,BHN",33.01213,-115.21987,39.0,1999.092,2012.244
CI.BTL.,CI,BTL,,EHZ,34.25698,-117.00521,2527.0,1975.322,3000.001
CI.BTL2.,CI,BTL2,,"HHN,BHE,HHZ,HHE,BHZ,BHN",34.256841,-117.00543,2553.1,2023.221,3000.001
CI.BTP.,CI,BTP,,"HHN,BHE,HHZ,HHE,BHZ,BHN",34.68224,-118.57398,1702.0,1997.337,3000.001
CI.BUE.,CI,BUE,,"BHE,HHN,HHZ,HHE,BHZ,BHN,EHZ",34.612987,-120.196793,110.0,2013.338,3000.001
CI.BVH.,CI,BVH,,EHZ,34.07618,-118.3959,39.0,1997.094,2001.018
CI.CAB.,CI,CAB,,EHZ,34.15573,-118.64093,259.0,1997.094,2000.090
CI.CAC.,CI,CAC,,EHZ,34.13678,-118.12199,230.0,2003.066,3000.001
CI.CAH.,CI,CAH,,EHZ,33.49296,-116.72386,1313.0,1981.109,1990.194
CI.CAL.,CI,CAL,,EHZ,35.10331,-117.94924,690.0,1984.053,1999.045
CI.CALB.,CI,CALB,,"HHN,BHE,HHZ,HHE,BHZ,BHN",34.14302,-118.62839,276.0,1994.010,1997.207
CI.CAM.,CI,CAM,,EHZ,34.25451,-119.03419,222.0,1975.325,1982.279
CI.CAP.,CI,CAP,,"HHN,BHE,HHZ,HHE,BHZ,BHN",33.38822,-117.19495,285.0,2000.104,2007.298
CI.CAR.,CI,CAR,,"HHN,BHE,HHZ,HHE,BHZ,BHN",35.30819,-119.84583,765.0,2006.097,3000.001
CI.CAV.,CI,CAV,,EHZ,35.05071,-116.34534,558.0,1982.355,1995.273
CI.CBK.,CI,CBK,,EHZ,32.9158,-116.25226,355.0,1984.053,3000.001
CI.CCA.,CI,CCA,,"BHE,HHN,HHZ,HHE,BHZ,BHN,EHZ",35.15252,-118.01649,710.0,2002.094,3000.001
CI.CCC.,CI,CCC,,"HHN,BHE,HHZ,HHE,BHZ,BHN",35.52495,-117.36453,670.0,2001.173,3000.001
CI.CCK.,CI,CCK,,"HHN,BHE,HHZ,HHE,BHZ,BHN",35.14978,-118.197,1294.0,2022.294,3000.001
CI.CCM.,CI,CCM,,EHZ,33.42923,-115.46543,440.0,1975.364,1978.009
CI.CCR.,CI,CCR,,"EHE,EHN,EHZ",34.36082,-116.9409,1383.0,1992.343,1995.289
CI.CCT.,CI,CCT,,"HHN,BHE,HHZ,HHE,BHZ,BHN",33.896256,-117.414694,301.9,2022.297,3000.001
CI.CDD.,CI,CDD,,"HHN,BHE,HHZ,HHE,BHZ,BHN",32.58395,-114.35617,213.6,2016.263,3000.001
CI.CDM.,CI,CDM,,"HHN,BHE,HHZ,HHE,BHZ,BHN",34.36855,-119.341437,166.8,2019.168,3000.001
CI.CDY.,CI,CDY,,EHZ,34.83007,-116.33717,934.0,1992.189,2001.318
CI.CFD.,CI,CFD,,EHZ,34.399268,-119.515762,8.0,2013.338,3000.001
CI.CFL.,CI,CFL,,EHZ,34.33296,-118.02387,1560.0,1977.311,2003.289
CI.CFT.,CI,CFT,,"BHE,HHN,HHZ,HHE,BHZ,BHN,EHZ",34.03547,-117.11241,682.0,1975.006,3000.001
CI.CGO.,CI,CGO,,"HHN,BHE,HHZ,HHE,BHZ,BHN",36.5504,-117.80295,2795.0,2001.345,3000.001
CI.CH2.,CI,CH2,,EHZ,33.29624,-115.33693,349.2,1973.170,1992.194
CI.CHF.,CI,CHF,,"HHN,BHE,HHZ,HHE,BHZ,BHN",34.33341,-118.02585,1594.0,1998.307,3000.001
CI.CHI.,CI,CHI,,"BHE,HHN,HHZ,HHE,BHZ,BHN,EHZ",34.18156,-119.22244,3.0,2013.302,3000.001
CI.CHK.,CI,CHK,,"BHE,HHN,HHZ,HHE,BHZ,BHN,EHZ",34.067135,-118.971181,258.0,2017.191,3000.001
CI.CHL.,CI,CHL,,"HHN,BHE,HHZ,HHE,BHZ,BHN",33.910841,-117.683682,331.9,2021.106,3000.001
CI.CHM.,CI,CHM,,EHZ,34.55304,-114.57275,919.8,1975.032,1978.026
CI.CHN.,CI,CHN,,"HHN,BHE,HHZ,HHE,BHZ,BHN",33.99879,-117.68044,208.0,1999.285,3000.001
CI.CHP.,CI,CHP,,EHZ,34.80833,-119.01167,1590.0,1952.183,1952.325
CI.CHR.,CI,CHR,,"HHN,BHE,HHZ,HHE,BHZ,BHN",34.729019,-119.392693,1021.8,2017.172,3000.001
CI.CIA.,CI,CIA,,"HHN,BHE,HHZ,HHE,BHZ,BHN",33.401898,-118.415021,477.0,1998.253,3000.001
CI.CIS.,CI,CIS,,EHZ,33.40671,-118.40417,436.0,1971.182,2001.319
CI.CIU.,CI,CIU,,"HHN,BHE,HHZ,HHE,BHZ,BHN",33.44577,-118.483,36.5,1997.169,1998.274
CI.CJM.,CI,CJM,,"HHN,BHE,HHZ,HHE,BHZ,BHN",34.27117,-117.42448,1616.0,2011.321,3000.001
CI.CJV.,CI,CJV,,EHZ,34.52978,-118.1445,1296.0,1984.053,2013.310
CI.CJV2.,CI,CJV2,,"HHN,BHE,HHZ,HHE,BHZ,BHN",34.52978,-118.1445,1296.0,2013.318,3000.001
CI.CKC.,CI,CKC,,EHZ,34.13636,-117.17548,506.0,1975.042,1981.255
CI.CKP.,CI,CKP,,"HHN,BHE,HHZ,HHE,BHZ,BHN",33.55507,-114.8904,145.0,2016.321,3000.001
CI.CLC.,CI,CLC,,"BHE,HHN,HHZ,HHE,EHE,EHN,BHZ,BHN,EHZ",35.81574,-117.59751,775.0,1948.190,3000.001
CI.CLI.,CI,CLI,,"EHE,EHN,EHZ",33.14029,-115.52658,-92.0,1976.309,2016.252
CI.CLI2.,CI,CLI2,,EHZ,33.12112,-115.58016,-60.2,2015.267,3000.001
CI.CLM.,CI,CLM,,"EHE,EHN,EHZ",34.09613,-117.72297,317.0,1990.120,1991.098
CI.CLO.,CI,CLO,,"BHE,HHN,HHZ,HHE,BHZ,BHN,EHZ",34.22038,-119.00891,48.0,2013.302,3000.001
CI.CLT.,CI,CLT,,"HHN,BHE,HHZ,HHE,BHZ,BHN",34.09284,-117.31687,325.0,1999.301,3000.001
CI.CO2.,CI,CO2,,EHZ,33.84524,-115.34351,242.0,1974.334,1999.003
CI.COA.,CI,COA,,"BHE,HHN,HHZ,HHE,BHZ,BHN,EHZ",32.86341,-115.12339,36.0,1973.090,3000.001
CI.COK.,CI,COK,,EHZ,32.84946,-115.72788,-50.0,1973.120,2013.093
CI.COK2.,CI,COK2,,EHZ,32.85053,-115.7284,-14.0,2013.044,3000.001
CI.COO.,CI,COO,,"HHN,BHE,HHZ,HHE,BHZ,BHN",33.89604,-118.21639,20.9,1996.116,2000.090
CI.COQ.,CI,COQ,,EHZ,33.86054,-117.51049,486.6,1951.088,1981.111
CI.COT.,CI,COT,,EHZ,33.3049,-115.35409,244.0,1973.060,1977.337
CI.COY.,CI,COY,,EHZ,33.36296,-116.31114,218.0,1976.171,1998.016
CI.CPE.,CI,CPE,,EHZ,32.89244,-117.10143,143.0,1972.088,2003.135
CI.CPM.,CI,CPM,,EHZ,34.15442,-116.19771,897.0,1974.305,1999.320
CI.CPO.,CI,CPO,,"BHE,HHN,HHZ,HHE,BHZ,BHN,EHZ",32.64266,-116.48514,838.0,2016.095,3000.001
CI.CPP.,CI,CPP,,"HHN,BHE,HHZ,HHE,BHZ,BHN",34.0602,-117.809,205.0,1997.038,2003.314
CI.CPT.,CI,CPT,,EHZ,33.30339,-117.34081,14.0,1975.014,1988.361
CI.CPT2.,CI,CPT2,,"BHE,HHN,HHZ,HHE,BHZ,BHN,EHZ",33.34183,-117.32502,771.0,2015.180,3000.001
CI.CRF.,CI,CRF,,EHZ,33.873521,-118.039376,18.1,2015.310,3000.001
CI.CRG.,CI,CRG,,"BHE,HHN,HHZ,HHE,BHZ,BHN,EHZ",35.2422,-119.72486,1169.0,1976.203,3000.001
CI.CRN.,CI,CRN,,EHZ,33.87574,-117.56106,204.8,1995.227,3000.001
CI.CRP.,CI,CRP,,"HHN,BHE,HHZ,HHE,BHZ,BHN",34.13624,-118.12705,233.0,2003.031,2008.309
CI.CRR.,CI,CRR,,"BHE,HHN,HHZ,HHE,BHZ,BHN,EHZ",32.88682,-115.96918,66.0,1950.099,3000.001
CI.CRS.,CI,CRS,,EHZ,34.24336,-117.26248,1430.0,1949.139,1950.243
CI.CRY.,CI,CRY,,"HHN,BHE,HHZ,HHE,BHZ,BHN",34.778248,-119.628105,1527.9,2021.218,3000.001
CI.CSH.,CI,CSH,,"HHN,BHE,HHZ,HHE,BHZ,BHN",33.6442,-116.5956,1637.0,2016.032,3000.001
CI.CSL.,CI,CSL,,EHZ,34.496513,-118.616208,353.9,2015.251,3000.001
CI.CTC.,CI,CTC,,"HHN,BHE,HHZ,HHE,BHZ,BHN",33.65516,-115.99006,538.0,2000.118,3000.001
CI.CTD.,CI,CTD,,"HHE,HHN,HHZ",33.35486,-118.44436,190.0,2007.207,2013.280
CI.CTW.,CI,CTW,,"BHE,HHN,HHZ,HHE,BHZ,BHN,EHZ",33.67728,-115.87214,504.0,1977.243,3000.001
CI.CVW.,CI,CVW,,"BHE,HHN,HHZ,HHE,BHZ,BHN,EHZ",34.92217,-118.93913,804.8,2011.265,3000.001
CI.CWC.,CI,CWC,,"BHE,HHN,HHZ,HHE,EHE,EHN,BHZ,BHN,EHZ",36.439047,-118.080495,1569.5,1965.288,3000.001
CI.CWP.,CI,CWP,,"HHN,BHE,HHZ,HHE,BHZ,BHN",33.557975,-117.55775,242.6,2018.045,3000.001
CI.CYP.,CI,CYP,,"HHN,BHE,HHZ,HHE,BHZ,BHN",32.906111,-116.627222,1013.7,2017.195,3000.001
CI.CZN.,CI,CZN,,"BHE,HHN,HHZ,HHE,BHZ,BHN,EHZ",33.91375,-116.78409,538.0,2013.302,3000.001
CI.DAH.,CI,DAH,,EHZ,32.73458,-115.55859,-42.0,1975.001,1976.153
CI.DAN.,CI,DAN,,"HHN,BHE,HHZ,HHE,BHZ,BHN",34.63745,-115.38115,428.0,1998.265,3000.001
CI.DAW.,CI,DAW,,"HHN,BHE,HHZ,HHE,BHZ,BHN",36.27148,-117.59214,1477.4,2017.058,3000.001
CI.DB2.,CI,DB2,,EHZ,33.73521,-117.06289,591.0,1975.040,1992.185
CI.DBM.,CI,DBM,,EHZ,34.97877,-118.36107,1162.0,1983.258,2001.037
CI.DEC.,CI,DEC,,"HHN,BHE,HHZ,HHE,BHZ,BHN",34.25353,-118.33383,519.0,2000.223,3000.001
CI.DEV.,CI,DEV,,"HHN,BHE,HHZ,HHE,BHZ,BHN",33.93597,-116.57794,337.0,1997.315,3000.001
CI.DGR.,CI,DGR,,"HHN,BHE,HHZ,HHE,BHZ,BHN",33.65001,-117.00947,650.0,1993.173,3000.001
CI.DHS.,CI,DHS,,EHZ,33.92638,-116.38629,396.0,1978.091,1981.071
CI.DJJ.,CI,DJJ,,"HHN,BHE,HHZ,HHE,BHZ,BHN",34.10618,-118.45505,268.0,1998.313,3000.001
CI.DLA.,CI,DLA,,"HHN,BHE,HHZ,HHE,BHZ,BHN",33.84822,-118.09624,14.0,2000.125,3000.001
CI.DLT.,CI,DLT,,EHZ,34.17003,-117.81083,550.2,1950.201,1959.214
CI.DNR.,CI,DNR,,"HHN,BHE,HHZ,HHE,BHZ,BHN",33.56667,-116.63056,1274.0,2001.295,3000.001
CI.DPP.,CI,DPP,,"HHN,BHE,HHZ,HHE,BHZ,BHN",32.99889,-116.94187,463.0,2000.298,3000.001
CI.DRC.,CI,DRC,,"HHN,BHE,HHZ,HHE,BHZ,BHN",32.8054,-115.44654,-15.0,1998.275,2002.198
CI.DRE.,CI,DRE,,"HHN,BHE,HHZ,HHE,BHZ,BHN",32.80532,-115.44679,-13.0,2002.198,3000.001
CI.DSC.,CI,DSC,,"HHN,BHE,HHZ,HHE,BHZ,BHN",35.14255,-116.10395,283.0,2002.302,3000.001
CI.DSN10.A0,CI,DSN10,A0,"HHE,HHN,HHZ",34.136187,-118.127443,232.0,2016.183,2018.091
CI.DSN10.B0,CI,DSN10,B0,"HHE,HHN,HHZ",34.136187,-118.127443,232.0,2016.183,2018.091
CI.DSN5.B0,CI,DSN5,B0,"HHN,BHE,HHZ,HHE,BHZ,BHN",34.17141,-118.18523,341.0,2010.078,3000.001
CI.DSN5.A0,CI,DSN5,A0,"HHN,BHE,HHZ,HHE,BHZ,BHN",34.17141,-118.18523,341.0,2010.078,3000.001
CI.DSN5.50,CI,DSN5,50,"HHN,BHE,HHZ,HHE,BHZ,BHN",34.17141,-118.18523,341.0,2010.078,3000.001
CI.DSN5.51,CI,DSN5,51,"HHN,BHE,HHZ,HHE,BHZ,BHN",34.17141,-118.18523,341.0,2010.078,3000.001
CI.DSN6.60,CI,DSN6,60,"HHN,BHE,HHZ,HHE,BHZ,BHN",34.17141,-118.18523,341.0,2010.078,3000.001
CI.DSN6.61,CI,DSN6,61,"HHN,BHE,HHZ,HHE,BHZ,BHN",34.17141,-118.18523,341.0,2010.078,3000.001
CI.DSN6.A0,CI,DSN6,A0,"HHN,BHE,HHZ,HHE,BHZ,BHN",34.17141,-118.18523,341.0,2010.078,3000.001
CI.DSN6.B0,CI,DSN6,B0,"HHN,BHE,HHZ,HHE,BHZ,BHN",34.17141,-118.18523,341.0,2010.078,3000.001
CI.DTC.,CI,DTC,,EHZ,34.424157,-118.661913,382.7,2015.260,3000.001
CI.DTP.,CI,DTP,,"BHE,HHN,HHZ,HHE,BHZ,BHN,EHZ",35.26742,-117.84581,908.0,1981.151,3000.001
CI.DVL.,CI,DVL,,EHZ,34.19986,-117.32899,554.0,1974.323,1977.126
CI.DVT.,CI,DVT,,"HHN,BHE,HHZ,HHE,BHZ,BHN",32.65915,-116.10061,881.0,2001.173,2010.014
CI.DZA.,CI,DZA,,"HHN,BHE,HHZ,HHE,BHZ,BHN",32.60657,-116.77477,554.7,2016.081,3000.001
CI.EAG.,CI,EAG,,EHZ,33.84905,-115.47394,319.0,1974.323,1983.004
CI.ECF.,CI,ECF,,EHZ,34.45801,-119.09154,956.0,1975.160,1999.003
CI.EDW.,CI,EDW,,"HHN,BHE,HHZ,HHE,BHZ,BHN",34.88303,-117.99106,789.0,1990.074,2004.216
CI.EDW2.,CI,EDW2,,"HHN,BHE,HHZ,HHE,BHZ,BHN",34.8811,-117.99388,772.0,2004.125,3000.001
CI.EL2.,CI,EL2,,EHZ,34.5295,-117.6435,979.5,1995.137,2015.062
CI.ELM.,CI,ELM,,EHZ,34.52638,-117.64064,954.0,1983.263,1995.141
CI.ELO.,CI,ELO,,"HHN,BHE,HHZ,HHE,BHZ,BHN",32.765292,-115.620876,1.0,2022.122,3000.001
CI.ELR.,CI,ELR,,EHZ,33.14747,-115.83335,-97.0,1976.307,2002.095
CI.ELS.,CI,ELS,,EHZ,33.64698,-117.42812,790.0,1984.053,2002.027
CI.ELS2.,CI,ELS2,,"HHN,BHE,HHZ,HHE,BHZ,BHN",33.64907,-117.42604,844.0,2013.141,3000.001
CI.EML.,CI,EML,,"HHN,BHE,HHZ,HHE,BHZ,BHN",32.89083,-116.84566,161.0,2000.300,3000.001
CI.EMS.,CI,EMS,,EHZ,32.73921,-114.98521,11.0,1982.151,3000.001
CI.EOC.,CI,EOC,,"BHE,HHN,HHZ,HHE,BHZ,BHN,EHZ",34.450291,-119.769411,75.0,2013.338,3000.001
CI.ERP.,CI,ERP,,EHZ,32.74311,-115.66354,-42.0,1984.053,2014.177
CI.ERR.,CI,ERR,,"HHN,BHE,HHZ,HHE,BHZ,BHN",33.11675,-115.82267,-56.0,2000.013,2014.083
CI.ESI.,CI,ESI,,EHZ,33.67388,-117.32643,388.0,2013.302,2019.121
CI.ESI2.,CI,ESI2,,"BHE,HHN,HHZ,HHE,BHZ,BHN,EHZ",33.67493,-117.32592,388.0,2019.154,3000.001
CI.EW2.,CI,EW2,,"EHE,EHN,EHZ",33.94059,-116.40839,639.0,1996.047,2009.013
CI.EWC.,CI,EWC,,"EHE,EHN,EHZ",33.93724,-116.38216,466.0,1981.096,1996.048
CI.FAL.,CI,FAL,,EHZ,34.30985,-117.81,2324.2,1983.261,1990.008
CI.FDR.,CI,FDR,,"HHN,BHE,HHZ,HHE,BHZ,BHN",35.64262,-118.93433,352.1,2018.120,3000.001
CI.FHO.,CI,FHO,,"HHN,BHE,HHZ,HHE,BHZ,BHN",34.09355,-116.93588,1614.0,2009.216,3000.001
CI.FIG.,CI,FIG,,"HHN,BHE,HHZ,HHE,BHZ,BHN",34.72832,-119.98803,945.0,2001.033,3000.001
CI.FIL.,CI,FIL,,EHZ,34.42335,-118.83531,205.0,1984.054,1997.143
CI.FLL.,CI,FLL,,EHZ,34.39727,-118.91807,103.0,1997.094,2000.090
CI.FLS.,CI,FLS,,EHZ,34.97036,-117.03909,990.0,1979.287,3000.001
CI.FMA.,CI,FMA,,EHZ,33.71828,-118.28485,15.0,1976.061,1999.046
CI.FMO.,CI,FMO,,"BHE,HHN,HHZ,HHE,BHZ,BHN,EHZ",34.409286,-118.920887,137.0,2013.302,3000.001
CI.FMP.,CI,FMP,,"HHN,BHE,HHZ,HHE,BHZ,BHN",33.71264,-118.29381,89.0,2000.243,3000.001
CI.FNK.,CI,FNK,,EHZ,33.38306,-115.63844,-36.0,1976.307,1982.064
CI.FON.,CI,FON,,EHZ,34.09957,-117.43876,388.8,1995.222,3000.001
CI.FOX.,CI,FOX,,EHZ,34.74431,-118.23255,683.0,1983.261,2014.204
CI.FOX2.,CI,FOX2,,"HHN,BHE,HHZ,HHE,BHZ,BHN",34.7339,-118.24046,719.7,2013.196,3000.001
CI.FPC.,CI,FPC,,"HHN,BHE,HHZ,HHE,BHZ,BHN",35.082,-117.58267,916.7,1997.050,2001.165
CI.FRG.,CI,FRG,,EHZ,33.75722,-116.06228,887.0,1981.151,2002.028
CI.FRK.,CI,FRK,,"BHE,HHN,HHZ,HHE,BHZ,BHN,EHZ",33.40209,-115.63835,95.5,1981.212,3000.001
CI.FRM.,CI,FRM,,EHZ,34.77518,-118.96935,2443.0,2013.303,3000.001
CI.FSR.,CI,FSR,,"HHN,BHE,HHZ,HHE,BHZ,BHN",35.66511,-117.42371,570.4,2022.294,3000.001
CI.FTC.,CI,FTC,,EHZ,34.87151,-118.9002,986.0,1952.325,1996.264
CI.FTM.,CI,FTM,,EHZ,32.55493,-114.33423,213.0,1975.001,1978.120
CI.FUL.,CI,FUL,,EHZ,33.8717,-117.92251,51.0,1995.227,3000.001
CI.FUR.,CI,FUR,,"HHN,BHE,HHZ,HHE,BHZ,BHN",36.46703,-116.86322,-37.0,1996.324,3000.001
CI.GAL.,CI,GAL,,"EHE,EHN,EHZ",35.21367,-117.75551,936.0,1975.154,1992.186
CI.GATR.,CI,GATR,,"HHN,BHE,HHZ,HHE,BHZ,BHN",34.55266,-120.50235,590.0,2008.184,3000.001
CI.GAV.,CI,GAV,,EHZ,34.02248,-117.50492,262.0,1976.004,2013.014
CI.GCC.,CI,GCC,,EHZ,34.32758,-118.31888,726.6,2017.159,3000.001
CI.GDF.,CI,GDF,,"HHN,BHE,HHZ,HHE,BHZ,BHN",34.4793,-118.91676,756.3,2021.218,3000.001
CI.GFF.,CI,GFF,,"BHE,HHN,HHZ,HHE,BHZ,BHN,EHZ",34.923805,-115.072662,791.1,2017.096,3000.001
CI.GFP.,CI,GFP,,"EHE,EHN,EHZ",34.13165,-118.31978,339.0,1985.246,1999.003
CI.GFS.,CI,GFS,,"BHE,HHN,HHZ,HHE,BHZ,BHN,EHZ",34.476604,-120.214358,71.1,2016.144,3000.001
CI.GLA.,CI,GLA,,"BHE,HHN,HHZ,HHE,EHE,EHN,BHZ,BHN,EHZ",33.05149,-114.82706,610.0,1966.353,3000.001
CI.GMA.,CI,GMA,,"HHN,BHE,HHZ,HHE,BHZ,BHN",34.29148,-116.38256,848.0,2013.338,3000.001
CI.GMR.,CI,GMR,,"HHN,BHE,HHZ,HHE,BHZ,BHN",34.78457,-115.65994,1326.0,2006.094,3000.001
CI.GOR.,CI,GOR,,"HHN,BHE,HHZ,HHE,BHZ,BHN",33.1537,-117.22921,138.0,1999.180,3000.001
CI.GOU.,CI,GOU,,"BHE,HHN,HHZ,HHE,BHZ,BHN,EHZ",34.22119,-118.18834,587.0,2013.302,3000.001
CI.GPO.,CI,GPO,,"HHN,BHE,HHZ,HHE,BHZ,BHN",35.6494,-117.6619,705.0,1996.012,1998.025
CI.GR2.,CI,GR2,,"HHN,BHE,HHZ,HHE,BHZ,BHN",34.11816,-118.30024,342.0,1998.089,3000.001
CI.GRA.,CI,GRA,,"HHN,BHE,HHZ,HHE,BHZ,BHN",36.99608,-117.36621,689.0,2001.108,3000.001
CI.GRH.,CI,GRH,,"EHE,EHN,EHZ",34.30803,-118.55954,723.0,1994.018,1999.002
CI.GRP.,CI,GRP,,EHZ,34.80481,-115.60705,1261.1,1974.364,2009.217
CI.GSA.,CI,GSA,,"EHE,EHN,EHZ",34.13677,-118.1283,234.0,1987.014,3000.001
CI.GSC.,CI,GSC,,"BHE,HHN,HHZ,HHE,BHZ,BHN,EHZ",35.30177,-116.80574,1000.0,1961.311,3000.001
CI.GTM.,CI,GTM,,EHZ,34.2946,-116.356,836.0,1992.180,2014.233
CI.GVR.,CI,GVR,,"EHE,EHN,EHZ",34.04972,-118.11995,141.0,1987.277,3000.001
CI.GVR.20,CI,GVR,20,EHZ,34.04972,-118.11995,141.0,1987.277,3000.001
CI.HAI.,CI,HAI,,"EHE,EHN,EHZ",36.13664,-117.94753,1110.0,1932.012,1974.270
CI.HAR.,CI,HAR,,"HHN,BHE,HHZ,HHE,BHZ,BHN",35.0114,-117.29909,620.0,2013.338,3000.001
CI.HAV.,CI,HAV,,EHZ,35.51,-118.51667,990.0,1952.207,1952.248
CI.HAY.,CI,HAY,,EHZ,33.70736,-115.63892,413.0,1956.172,2014.198
CI.HDB.,CI,HDB,,EHZ,34.40074,-116.28736,875.0,1999.290,3000.001
CI.HDG.,CI,HDG,,EHZ,34.42886,-116.3058,1302.0,1975.154,1990.007
CI.HDH.,CI,HDH,,"HHN,BHE,HHZ,HHE,BHZ,BHN",34.77529,-118.63999,964.6,2015.166,3000.001
CI.HEC.,CI,HEC,,"HHN,BHE,HHZ,HHE,BHZ,BHN",34.8294,-116.335,920.0,1997.213,3000.001
CI.HHL.,CI,HHL,,"HHN,BHE,HHZ,HHE,BHZ,BHN",34.600796,-119.748579,1347.9,2021.217,3000.001
CI.HIW.,CI,HIW,,"HHN,BHE,HHZ,HHE,BHZ,BHN",35.03998,-115.38423,1276.9,2017.159,3000.001
CI.HLL.,CI,HLL,,"HHN,BHE,HHZ,HHE,BHZ,BHN",34.17643,-118.35967,193.0,2000.083,3000.001
CI.HLN.,CI,HLN,,EHZ,34.12128,-117.21897,358.9,1995.222,3000.001
CI.HMT.,CI,HMT,,EHZ,33.70883,-117.00392,582.0,1993.194,2014.072
CI.HMT2.,CI,HMT2,,"HHN,BHE,HHZ,HHE,BHZ,BHN",33.708115,-117.001524,593.0,2013.141,3000.001
CI.HOD.,CI,HOD,,EHZ,34.83886,-117.24753,807.0,1981.151,2002.151
CI.HOL.,CI,HOL,,EHZ,34.45825,-117.84505,1269.0,1997.135,2014.203
CI.HOT.,CI,HOT,,EHZ,33.3144,-116.58236,1934.0,1976.006,1994.344
CI.HRV.,CI,HRV,,"HHN,BHE,HHZ,HHE,BHZ,BHN",34.72711,-118.8044,917.9,2021.236,3000.001
CI.HSP.,CI,HSP,,EHZ,32.74691,-115.56259,-54.0,1975.051,1976.153
CI.HYS.,CI,HYS,,"BHE,HHN,HHZ,HHE,BHZ,BHN,EHZ",34.86532,-117.56975,833.0,1983.258,3000.001
CI.IBP.,CI,IBP,,"HHN,BHE,HHZ,HHE,BHZ,BHN",32.66112,-116.09286,879.0,2010.096,2011.103
CI.IDO.,CI,IDO,,"HHN,BHE,HHZ,HHE,BHZ,BHN",33.79678,-116.22152,469.0,2010.124,3000.001
CI.IDQ.,CI,IDQ,,EHZ,33.76795,-116.23897,29.0,2010.271,3000.001
CI.IDY.,CI,IDY,,"BHE,HHN,HHZ,HHE,BHZ,BHN,EHZ",33.74642,-116.71536,1632.0,2013.303,3000.001
CI.IKP.,CI,IKP,,"BHE,HHN,HHZ,HHE,BHZ,BHN,EHZ",32.65012,-116.10948,906.0,1972.089,3000.001
CI.IMP.,CI,IMP,,"HHN,BHE,HHZ,HHE,BHZ,BHN",32.90147,-115.56071,-27.0,2013.302,3000.001
CI.IND.,CI,IND,,EHZ,33.81673,-116.2304,324.0,1981.243,1997.145
CI.ING.,CI,ING,,EHZ,32.98865,-115.31024,-33.0,1973.170,1995.309
CI.INS.,CI,INS,,EHZ,33.93572,-116.19512,1654.0,1974.306,1995.253
CI.IPT.,CI,IPT,,"HHN,BHE,HHZ,HHE,BHZ,BHN",34.19701,-117.28498,943.0,2012.004,2021.074
CI.IR2.,CI,IR2,,EHZ,34.38807,-118.39972,562.0,1993.004,3000.001
CI.IRC.,CI,IRC,,EHZ,34.38851,-118.40304,533.0,1971.335,1993.007
CI.IRM.,CI,IRM,,"HHN,BHE,HHZ,HHE,BHZ,BHN",34.15738,-115.14513,567.0,2001.339,3000.001
CI.IRN.,CI,IRN,,EHZ,34.16005,-115.18476,990.7,1974.323,1990.193
CI.IRS.,CI,IRS,,EHZ,33.19086,-115.42904,-43.0,1983.193,2001.178
CI.ISA.,CI,ISA,,"BHE,HHN,HHZ,HHE,EHE,EHN,BHZ,BHN,EHZ",35.66278,-118.47403,873.0,1946.075,3000.001
CI.IVY.,CI,IVY,,"BHE,HHN,HHZ,HHE,BHZ,BHN,EHZ",33.76025,-117.47678,330.0,2013.303,3000.001
CI.JAW.,CI,JAW,,EHZ,35.31578,-118.04546,711.0,1985.247,1996.250
CI.JCS.,CI,JCS,,"HHN,BHE,HHZ,HHE,BHZ,BHN",33.0859,-116.5959,1264.0,1998.260,2007.259
CI.JEM.,CI,JEM,,"HHN,BHE,HHZ,HHE,BHZ,BHN",33.08098,-116.59755,1308.0,2008.122,3000.001
CI.JFS.,CI,JFS,,EHZ,35.35157,-117.67291,1393.0,1979.181,2014.139
CI.JNH.,CI,JNH,,EHZ,34.44795,-117.95705,1289.0,1977.324,2013.322
CI.JNH2.,CI,JNH2,,"HHN,BHE,HHZ,HHE,BHZ,BHN",34.448941,-117.95541,1305.0,2013.207,3000.001
CI.JPLS.,CI,JPLS,,"HHN,BHE,HHZ,HHE,BHZ,BHN",34.2053,-118.17368,465.6,2019.358,3000.001
CI.JRC.,CI,JRC,,"HHN,BHE,HHZ,HHE,BHZ,BHN",35.9823,-117.8076,1452.0,1996.354,2004.014
CI.JRC2.,CI,JRC2,,"HHN,BHE,HHZ,HHE,BHZ,BHN",35.98249,-117.80885,1469.0,2004.015,3000.001
CI.JTH.,CI,JTH,,"HHN,BHE,HHZ,HHE,BHZ,BHN",34.12644,-116.03785,609.4,2013.308,3000.001
CI.JTR.,CI,JTR,,EHZ,33.81405,-115.90095,1380.3,1981.181,1986.191
CI.JUL.,CI,JUL,,EHZ,33.04817,-116.61357,1260.0,1978.100,2003.134
CI.JUN.,CI,JUN,,EHZ,34.46969,-117.87867,1166.0,1975.050,1978.070
CI.JVA.,CI,JVA,,"HHN,BHE,HHZ,HHE,BHZ,BHN",34.36622,-116.61266,904.0,2001.101,3000.001
CI.KBY.,CI,KBY,,EHZ,33.04024,-115.70177,-99.0,1975.032,1976.153
CI.KEE.,CI,KEE,,EHZ,33.63856,-116.65425,1359.0,1975.040,1994.161
CI.KIK.,CI,KIK,,EHZ,34.15037,-118.10156,237.2,1995.193,3000.001
CI.KML.,CI,KML,,"BHE,HHN,HHZ,HHE,BHZ,BHN,EHZ",33.59738,-117.87909,9.0,2003.191,3000.001
CI.KNO.,CI,KNO,,EHZ,35.48333,-118.52833,1090.0,1952.248,1952.317
CI.KRC.,CI,KRC,,EHZ,35.32665,-119.7459,682.0,1952.292,1965.335
CI.KRV1.,CI,KRV1,,"HHN,BHE,HHZ,HHE,BHZ,BHN",35.45962,-118.77905,314.9,2022.033,3000.001
CI.KRV3.,CI,KRV3,,"HHN,BHE,HHZ,HHE,BHZ,BHN",35.77427,-118.43324,842.8,2022.034,3000.001
CI.KYP.,CI,KYP,,EHZ,34.1012,-118.88017,686.0,1975.160,1991.361
CI.KYV.,CI,KYV,,"HHN,BHE,HHZ,HHE,BHZ,BHN",33.92545,-116.1734,1498.2,2013.318,3000.001
CI.LAF.,CI,LAF,,"HHN,BHE,HHZ,HHE,BHZ,BHN",33.86889,-118.33143,20.0,1999.288,3000.001
CI.LAN.,CI,LAN,,EHZ,34.72683,-118.05177,684.0,1981.120,1990.194
CI.LAQ.,CI,LAQ,,EHZ,33.62798,-116.28051,-4.0,1981.243,2002.029
CI.LAT.,CI,LAT,,"BHE,HHN,HHZ,HHE,BHZ,BHN,EHZ",34.04449,-118.77643,351.0,2013.303,3000.001
CI.LAV.,CI,LAV,,EHZ,34.76597,-116.2888,814.0,1981.151,1992.212
CI.LBW2.,CI,LBW2,,"HHN,BHE,HHZ,HHE,BHZ,BHN",33.798,-118.08837,-16.3,2001.312,3000.001
CI.LCG.,CI,LCG,,"HHN,BHE,HHZ,HHE,BHZ,BHN",34.00033,-118.37794,108.0,1999.300,3000.001
CI.LCP.,CI,LCP,,"HHN,BHE,HHZ,HHE,BHZ,BHN",34.73551,-120.27996,199.0,2001.318,3000.001
CI.LDF.,CI,LDF,,"HHN,BHE,HHZ,HHE,BHZ,BHN",35.13066,-115.18416,1239.0,1999.321,3000.001
CI.LDR.,CI,LDR,,"HHN,BHE,HHZ,HHE,BHZ,BHN",34.9906,-118.34156,1121.0,2001.277,3000.001
CI.LED.,CI,LED,,EHZ,34.4677,-115.93729,807.0,1974.120,1988.048
CI.LEO.,CI,LEO,,"BHE,HHN,HHZ,HHE,BHZ,BHN,EHZ",34.63064,-118.30505,1025.0,1981.070,3000.001
CI.LEV.,CI,LEV,,EHZ,34.614048,-118.289268,933.0,1995.278,2015.092
CI.LFP.,CI,LFP,,"HHN,BHE,HHZ,HHE,BHZ,BHN",34.305103,-118.487967,368.0,2000.024,3000.001
CI.LGA.,CI,LGA,,EHZ,32.75976,-114.49356,18.0,1975.182,1978.028
CI.LGB.,CI,LGB,,"HHN,BHE,HHZ,HHE,BHZ,BHN",33.9753,-118.14918,42.0,2000.097,3000.001
CI.LGC.,CI,LGC,,EHZ,33.607,-117.758,112.0,1971.188,1974.074
CI.LGU.,CI,LGU,,"HHN,BHE,HHZ,HHE,BHZ,BHN",34.10819,-119.06587,416.0,1999.164,2015.022
CI.LHU.,CI,LHU,,EHZ,34.67092,-118.41259,1000.0,1976.213,1996.249
CI.LJB.,CI,LJB,,"EHE,EHN,EHZ",34.59092,-117.8489,861.0,1977.303,1998.035
CI.LJC.,CI,LJC,,"EHE,EHN,EHZ",32.8634,-117.25414,11.2,1932.005,1952.214
CI.LJR.,CI,LJR,,"HHN,BHE,HHZ,HHE,BHZ,BHN",34.80762,-118.86775,1443.0,2002.309,3000.001
CI.LKH.,CI,LKH,,"HHN,BHE,HHZ,HHE,BHZ,BHN",33.23598,-116.75876,847.0,2013.302,3000.001
CI.LKL.,CI,LKL,,"HHN,BHE,HHZ,HHE,BHZ,BHN",34.61594,-117.82493,810.0,1996.130,2004.324
CI.LLA.,CI,LLA,,EHZ,34.8536,-117.48694,847.9,1981.335,1982.001
CI.LLN.,CI,LLN,,EHZ,34.48532,-117.84648,981.0,1984.061,1997.138
CI.LLS.,CI,LLS,,"HHN,BHE,HHZ,HHE,BHZ,BHN",33.68447,-117.94304,8.0,2000.032,3000.001
CI.LMH.,CI,LMH,,"BHE,HHN,HHZ,HHE,BHZ,BHN,EHZ",33.74418,-117.39135,496.0,2013.141,3000.001
CI.LMR.,CI,LMR,,"HHN,BHE,HHZ,HHE,BHZ,BHN",34.93426,-117.69661,965.0,2003.057,2003.268
CI.LMR2.,CI,LMR2,,"HHN,BHE,HHZ,HHE,BHZ,BHN",34.93439,-117.69629,964.0,2003.268,3000.001
CI.LMS.,CI,LMS,,"HHN,BHE,HHZ,HHE,BHZ,BHN",33.81744,-117.445,443.0,2013.141,3000.001
CI.LMY.,CI,LMY,,"HHN,BHE,HHZ,HHE,BHZ,BHN",34.733165,-119.10391,1575.0,2013.338,3000.001
CI.LOC.,CI,LOC,,"HHN,BHE,HHZ,HHE,BHZ,BHN",34.690735,-120.446901,95.0,2013.338,3000.001
CI.LOK.,CI,LOK,,EHZ,34.72444,-119.09279,1538.0,1982.060,1997.143
CI.LPC.,CI,LPC,,"HHN,BHE,HHZ,HHE,BHZ,BHN",34.31478,-117.54642,1351.0,2009.148,2021.266
CI.LRL.,CI,LRL,,"BHE,HHN,HHZ,HHE,BHZ,BHN,EHZ",35.47954,-117.68212,1340.0,1992.211,3000.001
CI.LRM.,CI,LRM,,EHZ,35.47737,-117.69,1222.0,1982.120,1993.118
CI.LRR.,CI,LRR,,EHZ,34.52629,-118.02867,880.0,1976.133,2014.196
CI.LRR2.,CI,LRR2,,"HHN,BHE,HHZ,HHE,BHZ,BHN",34.52706,-118.02998,906.0,2013.133,3000.001
CI.LTC.,CI,LTC,,EHZ,33.49378,-115.077,275.0,1974.120,2014.233
CI.LTM.,CI,LTM,,EHZ,33.91505,-114.91908,749.6,1974.120,1988.355
CI.LTP.,CI,LTP,,"HHN,BHE,HHZ,HHE,BHZ,BHN",33.8811,-118.17568,20.0,2000.207,3000.001
CI.LUC.,CI,LUC,,EHZ,34.45476,-116.96474,855.0,1988.214,2012.223
CI.LUC2.,CI,LUC2,,"HHN,BHE,HHZ,HHE,BHZ,BHN",34.45638,-116.96423,886.0,2012.178,3000.001
CI.LUG.,CI,LUG,,"HHN,BHE,HHZ,HHE,BHZ,BHN",34.3656,-117.36683,1140.0,1998.028,3000.001
CI.LUS.,CI,LUS,,"HHN,BHE,HHZ,HHE,BHZ,BHN",33.01375,-117.16305,120.7,2017.171,3000.001
CI.LVO.,CI,LVO,,"HHN,BHE,HHZ,HHE,BHZ,BHN",34.555798,-119.88387,275.6,2019.168,3000.001
CI.LVY.,CI,LVY,,"BHE,HHN,HHZ,HHE,BHZ,BHN,EHZ",34.17408,-119.15636,11.8,2013.303,3000.001
CI.LYP.,CI,LYP,,"HHN,BHE,HHZ,HHE,BHZ,BHN",32.70333,-116.7548,886.4,2016.144,3000.001
CI.MAG.,CI,MAG,,EHZ,35.36165,-118.92282,135.0,2001.029,3000.001
CI.MAN.,CI,MAN,,"HHN,BHE,HHZ,HHE,BHZ,BHN",34.8937,-120.08073,967.7,2022.290,3000.001
CI.MAR.,CI,MAR,,EHZ,35.0026,-119.34022,411.0,1980.060,2011.244
CI.MCT.,CI,MCT,,"HHN,BHE,HHZ,HHE,BHZ,BHN",34.22645,-116.04073,661.0,2001.024,3000.001
CI.MDA.,CI,MDA,,EHZ,33.9138,-117.00067,820.0,1975.010,2006.032
CI.MEC.,CI,MEC,,EHZ,33.63538,-116.02928,448.0,1981.151,2001.318
CI.MES.,CI,MES,,EHZ,34.263111,-119.095882,69.2,2016.294,3000.001
CI.MGE.,CI,MGE,,"HHN,BHE,HHZ,HHE,BHZ,BHN",33.81841,-116.36874,68.0,1999.289,3000.001
CI.MIR.,CI,MIR,,EHZ,33.41621,-116.08171,30.0,1981.120,2007.059
CI.MLAC.,CI,MLAC,,"HHN,BHE,HHZ,HHE,BHZ,BHN",37.63019,-118.83605,2162.0,1992.309,3000.001
CI.MLL.,CI,MLL,,EHZ,34.09125,-116.93713,1480.0,1974.323,1999.005
CI.MLS.,CI,MLS,,"HHN,BHE,HHZ,HHE,BHZ,BHN",34.0046,-117.56162,230.0,1998.064,3000.001
CI.MMC.,CI,MMC,,EHZ,33.57304,-117.76258,55.1,2015.302,3000.001
CI.MNO.,CI,MNO,,"BHE,HHN,HHZ,HHE,BHZ,BHN,EHZ",33.94738,-117.17278,564.0,2013.303,3000.001
CI.MNT.,CI,MNT,,EHZ,34.4569,-118.4444,701.0,1994.030,1997.145
CI.MOP.,CI,MOP,,"HHN,BHE,HHZ,HHE,BHZ,BHN",34.28096,-118.90469,141.0,1999.259,3000.001
CI.MOR.,CI,MOR,,"BHE,HHN,HHZ,HHE,BHZ,BHN,EHZ",33.50388,-117.13993,331.0,2013.302,3000.001
CI.MOV.,CI,MOV,,EHZ,34.15587,-116.50247,1246.9,1978.084,1980.182
CI.MPI.,CI,MPI,,"HHN,BHE,HHZ,HHE,BHZ,BHN",34.81258,-119.1453,2673.0,2000.306,3000.001
CI.MPM.,CI,MPM,,"HHN,BHE,HHZ,HHE,BHZ,BHN",36.05799,-117.48901,1839.0,1998.176,3000.001
CI.MPP.,CI,MPP,,"HHN,BHE,HHZ,HHE,BHZ,BHN",34.88848,-119.81362,1739.0,2000.275,3000.001
CI.MRV.,CI,MRV,,EHZ,34.06137,-116.5438,936.0,1979.293,1986.193
CI.MSC.,CI,MSC,,"HHN,BHE,HHZ,HHE,BHZ,BHN",34.03852,-116.64795,938.0,2009.112,3000.001
CI.MSJ.,CI,MSJ,,"HHN,BHE,HHZ,HHE,BHZ,BHN",33.80801,-116.96789,466.0,1999.208,3000.001
CI.MTA.,CI,MTA,,"BHE,HHN,HHZ,HHE,BHZ,BHN,EHZ",33.42654,-117.37927,785.0,2015.237,3000.001
CI.MTG.,CI,MTG,,"HHN,BHE,HHZ,HHE,BHZ,BHN",33.19915,-116.64727,1092.0,2013.302,3000.001
CI.MTL.,CI,MTL,,"HHN,BHE,HHZ,HHE,BHZ,BHN",34.2688,-118.2374,1540.5,1999.110,1999.152
CI.MTP.,CI,MTP,,"HHN,BHE,HHZ,HHE,BHZ,BHN",35.48434,-115.5532,1588.0,1996.254,3000.001
CI.MUR.,CI,MUR,,"HHN,BHE,HHZ,HHE,BHZ,BHN",33.59999,-117.19543,562.0,2005.206,3000.001
CI.MWC.,CI,MWC,,"BHE,HHN,HHZ,HHE,EHE,EHN,BHZ,BHN,EHZ",34.22362,-118.05832,1725.0,1928.114,3000.001
CI.NBS.,CI,NBS,,"HHN,BHE,HHZ,HHE,BHZ,BHN",34.78035,-116.55798,590.0,2001.353,3000.001
CI.NCH.,CI,NCH,,"HHN,BHE,HHZ,HHE,BHZ,BHN",34.9427,-119.67395,665.0,2013.338,3000.001
CI.NEE.,CI,NEE,,"HHN,BHE,HHZ,HHE,BHZ,BHN",34.8249,-114.59941,170.0,1993.110,2006.208
CI.NEE2.,CI,NEE2,,"HHN,BHE,HHZ,HHE,BHZ,BHN",34.76759,-114.61881,271.0,2006.208,3000.001
CI.NEN.,CI,NEN,,"BHE,HHN,HHZ,HHE,BHZ,BHN,EHZ",34.77539,-118.50099,859.0,2013.303,3000.001
CI.NHL.,CI,NHL,,EHZ,34.39148,-118.59946,542.0,1994.017,1995.273
CI.NJQ.,CI,NJQ,,"HHN,BHE,HHZ,HHE,BHZ,BHN",34.53412,-120.17737,219.0,2001.324,3000.001
CI.NOT.,CI,NOT,,EHZ,34.22869,-118.55829,247.5,1995.278,3000.001
CI.NPN.,CI,NPN,,EHZ,35.467388,-115.268509,935.1,2017.096,3000.001
CI.NSS.,CI,NSS,,"HHN,BHE,HHZ,HHE,BHZ,BHN",33.5561,-115.9465,-16.0,2000.325,2004.070
CI.NSS2.,CI,NSS2,,"HHN,BHE,HHZ,HHE,BHZ,BHN",33.55553,-115.94586,17.0,2004.077,3000.001
CI.NW2.,CI,NW2,,EHZ,33.08732,-115.69266,-100.0,1977.313,2002.235
CI.NWH.,CI,NWH,,EHZ,33.733138,-117.751087,95.8,2015.301,3000.001
CI.NWR.,CI,NWR,,EHZ,33.10174,-115.68427,-117.0,1976.306,1978.074
CI.OAK.,CI,OAK,,EHZ,34.36363,-118.78439,832.0,1994.020,2006.345
CI.OAT.,CI,OAT,,"BHE,HHN,HHZ,HHE,BHZ,BHN,EHZ",34.34361,-118.61442,1089.0,1999.070,3000.001
CI.OBB.,CI,OBB,,EHZ,33.1674,-115.63744,-107.0,1972.146,1981.060
CI.OCP.,CI,OCP,,"BHE,HHN,HHZ,HHE,BHZ,BHN,EHZ",32.74755,-116.01931,155.1,2015.107,3000.001
CI.OGC.,CI,OGC,,EHZ,33.78816,-117.844,64.0,1995.289,3000.001
CI.OKV.,CI,OKV,,EHZ,34.39697,-119.29874,124.0,1997.086,2000.090
CI.OLI.,CI,OLI,,"HHN,BHE,HHZ,HHE,BHZ,BHN",33.94539,-117.92372,162.0,1999.327,3000.001
CI.OLP.,CI,OLP,,"HHN,BHE,HHZ,HHE,BHZ,BHN",32.60771,-116.93019,159.0,2001.010,3000.001
CI.OLY.,CI,OLY,,EHZ,33.43142,-117.11806,446.0,1981.181,2002.027
CI.ORK.,CI,ORK,,EHZ,33.56623,-115.76994,1039.0,1981.151,2002.036
CI.OSI.,CI,OSI,,"HHN,BHE,HHZ,HHE,BHZ,BHN",34.6145,-118.7235,718.0,1995.179,3000.001
CI.PALA.,CI,PALA,,"HHN,BHE,HHZ,HHE,BHZ,BHN",33.38905,-117.03182,552.0,2014.009,3000.001
CI.PAS.,CI,PAS,,"BHE,HHN,HHZ,HHE,EHE,EHN,BHZ,BHN,EHZ",34.14844,-118.17117,314.0,1927.090,2006.303
CI.PASA.,CI,PASA,,"HHN,BHE,HHZ,HHE,BHZ,BHN",34.14844,-118.17113,307.8,1992.126,2006.304
CI.PASC.00,CI,PASC,00,"HHN,BHE,HHZ,HHE,BHZ,BHN",34.17141,-118.18523,341.0,2006.278,3000.001
CI.PASC.10,CI,PASC,10,"HHN,BHE,HHZ,HHE,BHZ,BHN",34.17141,-118.18523,341.0,2006.278,3000.001
CI.PCF.,CI,PCF,,EHZ,34.05304,-117.79144,226.0,1976.016,1998.018
CI.PDE.,CI,PDE,,"HHN,BHE,HHZ,HHE,BHZ,BHN",34.44199,-118.58215,328.0,1999.266,3000.001
CI.PDM.,CI,PDM,,"HHN,BHE,HHZ,HHE,BHZ,BHN",34.30336,-114.14152,144.0,2001.263,3000.001
CI.PDR.,CI,PDR,,"HHN,BHE,HHZ,HHE,BHZ,BHN",33.96273,-118.43702,45.0,2001.033,3000.001
CI.PDU.,CI,PDU,,"HHN,BHE,HHZ,HHE,BHZ,BHN",34.1207,-117.63808,445.0,1999.289,3000.001
CI.PDW.,CI,PDW,,EHZ,33.92397,-117.61713,166.0,2015.121,3000.001
CI.PEM.,CI,PEM,,EHZ,34.16689,-117.87009,777.0,1976.001,2019.273
CI.PER.,CI,PER,,"HHN,BHE,HHZ,HHE,BHZ,BHN",33.86164,-117.20529,468.0,2003.141,3000.001
CI.PFO.,CI,PFO,,"BHN,BHZ,BHE",33.61164,-116.45858,1288.0,1990.304,1998.006
CI.PGA.,CI,PGA,,"BHE,HHN,HHZ,HHE,BHZ,BHN,EHZ",33.4914,-117.0635,351.5,2013.302,3000.001
CI.PHL.,CI,PHL,,"HHN,BHE,HHZ,HHE,BHZ,BHN",35.40773,-120.54556,355.0,1997.204,3000.001
CI.PIC.,CI,PIC,,EHZ,32.91425,-114.64391,265.8,1975.001,1978.173
CI.PIU.,CI,PIU,,EHZ,34.74036,-115.09477,1163.0,1974.091,1976.306
CI.PKM.,CI,PKM,,EHZ,34.89556,-119.82084,1673.0,1976.208,2013.016
CI.PLC.,CI,PLC,,"HHN,BHE,HHZ,HHE,BHZ,BHN",33.82436,-116.51195,130.0,1999.145,2008.169
CI.PLE.,CI,PLE,,EHZ,34.96857,-119.06899,1050.0,1981.090,2011.111
CI.PLM.,CI,PLM,,"BHE,HHN,HHZ,HHE,EHE,EHN,BHZ,BHN,EHZ",33.35361,-116.86265,1691.0,1939.252,3000.001
CI.PLR.,CI,PLR,,"HHN,BHE,HHZ,HHE,BHZ,BHN",33.17349,-115.977744,54.9,2014.043,3000.001
CI.PLS.,CI,PLS,,"BHE,HHN,HHZ,HHE,EHE,EHN,BHZ,BHN,EHZ",33.7953,-117.60906,1199.0,1990.143,3000.001
CI.PLT.,CI,PLT,,EHZ,32.73123,-114.73012,26.0,1973.090,2006.192
CI.PMD.,CI,PMD,,"HHN,BHE,HHZ,HHE,BHZ,BHN",33.64785,-116.37769,296.0,2005.127,3000.001
CI.PNM.,CI,PNM,,EHZ,33.97738,-115.80161,1101.0,1974.120,2008.345
CI.POB.,CI,POB,,EHZ,33.68699,-116.92402,974.0,1976.152,2014.079
CI.POB2.,CI,POB2,,"HHN,BHE,HHZ,HHE,BHZ,BHN",33.68708,-116.92382,999.0,2014.079,3000.001
CI.POP.,CI,POP,,"HHN,BHE,HHZ,HHE,BHZ,BHN",34.728508,-118.39402,842.0,2021.236,3000.001
CI.POR.,CI,POR,,"HHN,BHE,HHZ,HHE,BHZ,BHN",36.10368,-119.00343,198.0,2018.277,3000.001
CI.PRR.,CI,PRR,,EHZ,33.78,-117.23333,440.0,1949.121,1970.319
CI.PSD.,CI,PSD,,"HHN,BHE,HHZ,HHE,BHZ,BHN",33.82393,-116.55026,144.0,2005.103,3000.001
CI.PSP.,CI,PSP,,EHZ,33.79371,-116.54968,162.0,1975.071,2006.024
CI.PSR.,CI,PSR,,"HHN,BHE,HHZ,HHE,BHZ,BHN",34.09181,-117.80709,305.0,2005.257,3000.001
CI.PTD.,CI,PTD,,"BHE,HHN,HHZ,HHE,BHZ,BHN,EHZ",34.00443,-118.80686,7.0,1973.181,3000.001
CI.PUT.,CI,PUT,,"BHE,HHN,HHZ,HHE,BHZ,BHN,EHZ",34.69115,-117.96919,747.0,2013.303,3000.001
CI.PVR.,CI,PVR,,EHZ,33.75237,-118.37171,153.0,1956.061,1997.145
CI.PZA.,CI,PZA,,"HHN,BHE,HHZ,HHE,BHZ,BHN",35.3558,-120.2524,778.7,2021.215,3000.001
CI.Q335.,CI,Q335,,"HHE,HHN,HHZ",34.136187,-118.127443,232.0,2016.183,2018.091
CI.Q335.A0,CI,Q335,A0,"HHE,HHN,HHZ",34.136187,-118.127443,232.0,2016.183,2018.091
CI.Q335.B0,CI,Q335,B0,"HHE,HHN,HHZ",34.136187,-118.127443,232.0,2016.183,2018.091
CI.QAD.,CI,QAD,,"BHE,HHN,HHZ,HHE,BHZ,BHN,EHZ",34.42367,-119.60926,68.0,2017.172,3000.001
CI.QAL.,CI,QAL,,EHZ,34.74909,-118.71518,1232.0,1981.090,2014.196
CI.QLC.,CI,QLC,,"HHN,BHE,HHZ,HHE,BHZ,BHN",35.04084,-119.97425,556.9,2016.123,3000.001
CI.QUG.,CI,QUG,,EHZ,34.39558,-118.49837,515.0,2001.019,3000.001
CI.RAG.,CI,RAG,,"BHE,HHN,HHZ,HHE,BHZ,BHN,EHZ",34.68289,-116.15139,722.0,1999.201,3000.001
CI.RAY.,CI,RAY,,EHZ,34.03749,-116.81306,2369.0,1975.329,2009.013
CI.RCH.,CI,RCH,,EHZ,34.30736,-116.3513,909.2,1975.314,1986.060
CI.RCR.,CI,RCR,,"HHN,BHE,HHZ,HHE,BHZ,BHN",33.36237,-116.3096,193.0,2014.365,3000.001
CI.RCT.,CI,RCT,,"BHE,HHN,HHZ,HHE,BHZ,BHN,EHZ",36.30523,-119.24384,107.0,1999.284,2022.168
CI.RCU.,CI,RCU,,EHZ,34.08309,-117.52442,329.9,2015.114,2024.107
CI.RDM.,CI,RDM,,EHZ,34.40002,-117.18415,1455.9,1976.245,1982.110
CI.RFR.,CI,RFR,,"HHN,BHE,HHZ,HHE,BHZ,BHN",35.113583,-120.097209,386.3,2016.123,3000.001
CI.RG2.,CI,RG2,,EHZ,35.74883,-117.629,658.0,1996.018,1996.340
CI.RGC.,CI,RGC,,EHZ,35.8408,-117.6606,693.0,1995.269,1996.021
CI.RHC.,CI,RHC,,EHZ,34.00094,-118.0131,364.0,2003.276,2014.014
CI.RHC2.,CI,RHC2,,"HHN,BHE,HHZ,HHE,BHZ,BHN",34.00095,-118.01333,362.0,2014.014,3000.001
CI.RHM.,CI,RHM,,EHZ,32.14167,-115.28333,20.0,1969.046,1973.010
CI.RHR.,CI,RHR,,"HHN,BHE,HHZ,HHE,BHZ,BHN",33.290213,-117.176482,173.0,2017.075,3000.001
CI.RIN.,CI,RIN,,"HHN,BHE,HHZ,HHE,BHZ,BHN",34.28196,-118.47925,304.0,1999.231,3000.001
CI.RIO.,CI,RIO,,"HHN,BHE,HHZ,HHE,BHZ,BHN",34.10473,-117.97956,118.0,1999.292,3000.001
CI.RKMO.,CI,RKMO,,"HHN,BHE,HHZ,HHE,BHZ,BHN",33.67421,-117.60947,408.0,2013.318,3000.001
CI.RMM.,CI,RMM,,"BHE,HHN,HHZ,HHE,BHZ,BHN,EHZ",34.64384,-116.62438,1777.0,1992.182,3000.001
CI.RMR.,CI,RMR,,EHZ,34.21283,-116.5763,1663.0,1974.334,3000.001
CI.ROD.,CI,ROD,,EHZ,34.62969,-116.60564,1247.0,1976.122,1982.064
CI.RPK.,CI,RPK,,"HHN,BHE,HHZ,HHE,BHZ,BHN",36.217982,-117.085375,3045.6,2022.311,3000.001
CI.RPV.,CI,RPV,,"HHN,BHE,HHZ,HHE,BHZ,BHN",33.74346,-118.40412,107.0,1993.132,3000.001
CI.RRC.,CI,RRC,,"HHN,BHE,HHZ,HHE,BHZ,BHN",35.372816,-117.989768,789.0,2016.299,3000.001
CI.RRS.,CI,RRS,,EHZ,33.88217,-117.36646,420.0,1996.116,2000.075
CI.RRX.,CI,RRX,,"HHN,BHE,HHZ,HHE,BHZ,BHN",34.87499,-116.99681,676.2,2000.313,3000.001
CI.RSE.,CI,RSE,,EHZ,32.92558,-115.49993,-90.0,1975.032,1976.153
CI.RSI.,CI,RSI,,"HHN,BHE,HHZ,HHE,BHZ,BHN",34.85191,-120.20868,181.3,2017.024,3000.001
CI.RSP.,CI,RSP,,"HHN,BHE,HHZ,HHE,BHZ,BHN",34.196664,-117.126075,1645.8,2022.265,3000.001
CI.RSS.,CI,RSS,,"HHN,BHE,HHZ,HHE,BHZ,BHN",33.97327,-117.32674,298.0,1999.147,3000.001
CI.RUN.,CI,RUN,,"BHE,HHN,HHZ,HHE,BHZ,BHN,EHZ",32.97222,-114.97809,116.0,1973.090,3000.001
CI.RUS.,CI,RUS,,"HHN,BHE,HHZ,HHE,BHZ,BHN",34.05075,-118.08078,70.0,1998.149,3000.001
CI.RVM.,CI,RVM,,EHZ,34.18022,-114.20107,246.7,1977.151,1987.104
CI.RVR.,CI,RVR,,"BHE,HHN,HHZ,HHE,EHE,EHN,BHZ,BHN,EHZ",33.99351,-117.37545,266.0,1926.292,3000.001
CI.RVS.,CI,RVS,,EHZ,34.03472,-114.51875,629.0,1974.120,1988.355
CI.RXH.,CI,RXH,,"HHN,BHE,HHZ,HHE,BHZ,BHN",33.18313,-115.62257,-59.0,2004.147,3000.001
CI.RYS.,CI,RYS,,EHZ,34.64341,-119.35224,1807.0,1976.202,2020.105
CI.SAD.,CI,SAD,,EHZ,34.08087,-118.66554,715.0,1976.032,2002.178
CI.SAI.,CI,SAI,,EHZ,34.01333,-119.43717,113.0,1976.192,1981.253
CI.SAL.,CI,SAL,,"BHE,HHN,HHZ,HHE,BHZ,BHN,EHZ",33.2801,-115.98585,14.0,1999.145,3000.001
CI.SAN.,CI,SAN,,EHZ,33.70432,-117.88578,11.0,1995.228,3000.001
CI.SBA.,CI,SBA,,EHZ,34.01335,-119.43803,66.0,1977.012,1981.060
CI.SBB.,CI,SBB,,EHZ,34.68817,-117.82501,796.0,1974.003,2007.332
CI.SBB2.,CI,SBB2,,"HHN,BHE,HHZ,HHE,BHZ,BHN",34.68844,-117.82424,825.0,2004.302,3000.001
CI.SBC.,CI,SBC,,"BHE,HHN,HHZ,HHE,EHE,EHN,BHZ,BHN,EHZ",34.44076,-119.71492,94.0,1932.005,3000.001
CI.SBI.,CI,SBI,,"HHN,BHE,HHZ,HHE,BHZ,BHN",33.48046,-119.02986,41.0,2003.197,3000.001
CI.SBK.,CI,SBK,,EHZ,35.07914,-117.58287,851.0,1981.120,2002.046
CI.SBPX.,CI,SBPX,,"HHN,BHE,HHZ,HHE,BHZ,BHN",34.2324,-117.23484,1860.0,1996.164,3000.001
CI.SCC.,CI,SCC,,EHZ,34.94094,-120.17297,565.0,1977.001,2002.077
CI.SCD.,CI,SCD,,EHZ,34.36841,-119.34467,183.0,1975.324,2002.077
CI.SCI.,CI,SCI,,"BHE,HHN,HHZ,HHE,EHE,EHN,BHZ,BHN,EHZ",32.9799,-118.54697,199.0,1966.165,2003.296
CI.SCI2.,CI,SCI2,,"HHN,BHE,HHZ,HHE,BHZ,BHN",32.9799,-118.54697,199.0,2003.296,3000.001
CI.SCY.,CI,SCY,,EHZ,34.10647,-118.45533,250.0,1970.363,1998.001
CI.SCZ.,CI,SCZ,,"HHN,BHE,HHZ,HHE,BHZ,BHN",33.99532,-119.63435,413.0,1999.071,2003.308
CI.SCZ2.,CI,SCZ2,,"HHN,BHE,HHZ,HHE,BHZ,BHN",33.99543,-119.6351,440.0,2003.308,3000.001
CI.SDD.,CI,SDD,,"HHN,BHE,HHZ,HHE,BHZ,BHN",33.55259,-117.66171,120.0,1999.110,3000.001
CI.SDG.,CI,SDG,,"HHN,BHE,HHZ,HHE,BHZ,BHN",32.784,-117.13805,101.0,2001.269,3000.001
CI.SDL.,CI,SDL,,EHZ,35.37652,-117.88838,638.0,1981.091,1985.090
CI.SDP.,CI,SDP,,"HHN,BHE,HHZ,HHE,BHZ,BHN",34.56547,-120.50137,631.0,2002.018,2006.227
CI.SDR.,CI,SDR,,"HHN,BHE,HHZ,HHE,BHZ,BHN",32.73561,-116.94241,113.0,2001.110,3000.001
CI.SDW.,CI,SDW,,EHZ,34.60953,-117.07593,1125.0,1975.059,1992.002
CI.SES.,CI,SES,,"HHN,BHE,HHZ,HHE,BHZ,BHN",34.43692,-119.1375,480.0,2001.025,3000.001
CI.SEV.,CI,SEV,,"HHN,BHE,HHZ,HHE,BHZ,BHN",35.58926,-117.28686,612.1,2022.294,3000.001
CI.SGL.,CI,SGL,,"BHE,HHN,HHZ,HHE,BHZ,BHN,EHZ",32.64933,-115.72638,75.0,1973.090,3000.001
CI.SHE.,CI,SHE,,EHZ,34.23869,-115.71349,750.0,1999.201,3000.001
CI.SHH.,CI,SHH,,EHZ,34.18771,-115.65528,1075.0,1974.314,1995.253
CI.SHO.,CI,SHO,,"HHN,BHE,HHZ,HHE,BHZ,BHN",35.89953,-116.2753,451.0,1996.288,3000.001
CI.SHR.,CI,SHR,,"HHN,BHE,HHZ,HHE,BHZ,BHN",36.49113,-118.84505,929.6,2021.222,3000.001
CI.SHU.,CI,SHU,,"BHE,HHN,HHZ,HHE,BHZ,BHN,EHZ",34.64279,-118.16454,774.0,2013.303,3000.001
CI.SIL.,CI,SIL,,"BHE,HHN,HHZ,HHE,BHZ,BHN,EHZ",34.34803,-116.82747,1698.0,1975.322,3000.001
CI.SIM.,CI,SIM,,EHZ,35.35017,-119.99653,578.0,1987.301,2015.020
CI.SIO.,CI,SIO,,EHZ,34.293,-119.1646,78.0,1995.278,2011.255
CI.SIP.,CI,SIP,,EHZ,34.20453,-118.78073,694.0,1975.324,2005.347
CI.SJQ.,CI,SJQ,,EHZ,33.62004,-117.84583,118.0,1971.182,1978.363
CI.SJU.,CI,SJU,,EHZ,33.48725,-117.68114,-3.0,1995.228,2001.335
CI.SKY.,CI,SKY,,EHZ,33.77575,-117.10712,774.0,1992.343,3000.001
CI.SLA.,CI,SLA,,"HHN,BHE,HHZ,HHE,BHZ,BHN",35.89095,-117.28332,1174.0,1999.068,3000.001
CI.SLB.,CI,SLB,,"HHN,BHE,HHZ,HHE,BHZ,BHN",33.48519,-115.86643,0.0,2009.037,3000.001
CI.SLC.,CI,SLC,,EHZ,34.49593,-119.71435,1164.0,1975.324,2002.079
CI.SLG.,CI,SLG,,EHZ,34.10946,-119.06496,381.0,1975.324,2001.318
CI.SLH.,CI,SLH,,"HHN,BHE,HHZ,HHE,BHZ,BHN",33.19269,-116.25399,208.0,2013.084,3000.001
CI.SLM.,CI,SLM,,"BHE,HHN,HHZ,HHE,BHZ,BHN,EHZ",34.45227,-118.42267,523.0,2013.303,3000.001
CI.SLP.,CI,SLP,,EHZ,34.55353,-120.39819,113.0,1975.354,2002.077
CI.SLR.,CI,SLR,,"HHN,BHE,HHZ,HHE,BHZ,BHN",33.83359,-116.79737,1567.0,2001.334,3000.001
CI.SLT.,CI,SLT,,EHZ,33.26488,-115.9242,-83.0,1981.090,1990.196
CI.SLU.,CI,SLU,,EHZ,32.50176,-114.77807,-8.0,1973.060,1977.335
CI.SLV.,CI,SLV,,"HHN,BHE,HHZ,HHE,BHZ,BHN",33.23854,-115.30436,254.6,2017.297,3000.001
CI.SMB.,CI,SMB,,"HHN,BHE,HHZ,HHE,BHZ,BHN",34.90218,-120.44709,74.0,2001.263,2005.349
CI.SME.,CI,SME,,EHZ,33.82288,-117.35623,466.0,1975.039,3000.001
CI.SMF.,CI,SMF,,EHZ,34.02159,-118.44675,19.0,1994.012,2011.255
CI.SMF2.,CI,SMF2,,"HHN,BHE,HHZ,HHE,BHZ,BHN",34.02201,-118.44627,52.2,2012.187,3000.001
CI.SMI.,CI,SMI,,"HHN,BHE,HHZ,HHE,BHZ,BHN",34.03818,-120.35132,165.0,2010.182,3000.001
CI.SMM.,CI,SMM,,"HHN,BHE,HHZ,HHE,BHZ,BHN",35.3142,-119.99581,599.0,1999.313,3000.001
CI.SMO.,CI,SMO,,EHZ,33.53561,-116.46239,2403.0,1976.097,1992.207
CI.SMR.,CI,SMR,,"HHN,BHE,HHZ,HHE,BHZ,BHN",35.37699,-120.61247,341.0,2008.143,3000.001
CI.SMS.,CI,SMS,,"HHN,BHE,HHZ,HHE,BHZ,BHN",34.01438,-118.45617,43.0,1997.169,2012.187
CI.SMT.,CI,SMT,,EHZ,34.33364,-119.01381,683.0,2013.303,3000.001
CI.SMTC.,CI,SMTC,,"HHN,BHE,HHZ,HHE,BHZ,BHN",32.94892,-115.72031,39.0,1993.188,1996.122
CI.SMV.,CI,SMV,,EHZ,34.27091,-118.74407,276.0,1995.284,3000.001
CI.SMW.,CI,SMW,,"HHN,BHE,HHZ,HHE,BHZ,BHN",35.01108,-120.40997,169.0,2008.344,3000.001
CI.SNCC.,CI,SNCC,,"HHN,BHE,HHZ,HHE,BHZ,BHN",33.24787,-119.52437,275.0,1994.123,3000.001
CI.SND.,CI,SND,,"HHE,HHN,EHZ,HHZ",35.14264,-118.30286,1294.0,1933.060,2002.120
CI.SNO.,CI,SNO,,"HHN,BHE,HHZ,HHE,BHZ,BHN",34.03515,-116.80778,2339.0,2008.338,3000.001
CI.SNR.,CI,SNR,,"BHE,HHN,HHZ,HHE,EHE,EHN,BHZ,BHN,EHZ",32.86184,-115.43602,-63.0,1973.121,3000.001
CI.SNS.,CI,SNS,,EHZ,33.43239,-117.55047,117.0,1975.029,1997.145
CI.SOC.,CI,SOC,,"HHN,BHE,HHZ,HHE,BHZ,BHN",33.38761,-117.58013,52.0,2015.180,3000.001
CI.SOF.,CI,SOF,,"HHN,BHE,HHZ,HHE,BHZ,BHN",33.37055,-117.5574,10.0,2012.269,2015.118
CI.SOL2.,CI,SOL2,,"HHN,BHE,HHZ,HHE,BHZ,BHN",34.4365,-118.289273,708.9,2021.237,3000.001
CI.SOT.,CI,SOT,,"HHN,BHE,HHZ,HHE,BHZ,BHN",34.416,-118.449,409.0,1996.130,2001.318
CI.SPF.,CI,SPF,,"HHN,BHE,HHZ,HHE,BHZ,BHN",34.05933,-118.64614,470.0,2000.293,3000.001
CI.SPG.,CI,SPG,,"HHN,BHE,HHZ,HHE,BHZ,BHN",36.1355,-118.81099,314.0,1999.271,2005.339
CI.SPG2.,CI,SPG2,,"HHN,BHE,HHZ,HHE,BHZ,BHN",36.20057,-118.76624,627.0,2005.340,3000.001
CI.SPH.,CI,SPH,,EHZ,33.74667,-118.33467,445.0,1971.268,1974.074
CI.SPM.,CI,SPM,,EHZ,34.47204,-115.40344,918.2,1974.129,1991.211
CI.SQC.,CI,SQC,,"BHE,HHN,HHZ,HHE,BHZ,BHN,EHZ",34.866469,-120.294393,130.0,2013.338,3000.001
CI.SRA.,CI,SRA,,"HHN,BHE,HHZ,HHE,BHZ,BHN",34.60601,-115.94987,338.6,2017.156,3000.001
CI.SRI.,CI,SRI,,"HHN,BHE,HHZ,HHE,BHZ,BHN",33.97875,-120.07886,392.0,2010.244,3000.001
CI.SRN.,CI,SRN,,"HHN,BHE,HHZ,HHE,BHZ,BHN",33.82854,-117.78938,208.0,1999.319,3000.001
CI.SRT.,CI,SRT,,"BHE,HHN,HHZ,HHE,BHZ,BHN,EHZ",35.69235,-117.75051,667.0,1982.212,3000.001
CI.SS2.,CI,SS2,,EHZ,34.20734,-117.50039,1574.0,1977.024,3000.001
CI.SS3.,CI,SS3,,"HHN,BHE,HHZ,HHE,BHZ,BHN",34.20772,-117.499668,1605.5,2021.293,3000.001
CI.SSC.,CI,SSC,,"EHE,EHN,EHZ",33.99546,-119.63513,413.0,1975.324,1999.319
CI.SSM.,CI,SSM,,EHZ,34.03734,-120.35106,126.0,1975.344,2001.105
CI.SSN.,CI,SSN,,EHZ,33.24494,-119.50737,217.0,1957.201,2002.079
CI.SSS.,CI,SSS,,"BHE,HHN,HHZ,HHE,BHZ,BHN,EHZ",34.03103,-117.45498,337.1,2015.308,3000.001
CI.SSV.,CI,SSV,,EHZ,34.21703,-117.48982,1550.0,1976.001,1977.153
CI.SSW.,CI,SSW,,"HHN,BHE,HHZ,HHE,BHZ,BHN",33.17747,-115.61564,-64.0,1997.275,2004.162
CI.STC.,CI,STC,,"HHN,BHE,HHZ,HHE,BHZ,BHN",34.30302,-119.18676,180.0,1999.319,3000.001
CI.STG.,CI,STG,,"HHN,BHE,HHZ,HHE,BHZ,BHN",33.664,-117.76856,49.0,2000.024,3000.001
CI.STO.,CI,STO,,EHZ,34.69199,-117.11727,1145.0,1992.191,1994.020
CI.STP.,CI,STP,,EHZ,34.57121,-114.84876,581.0,1974.091,1976.315
CI.STS.,CI,STS,,"HHN,BHE,HHZ,HHE,BHZ,BHN",33.79033,-118.19878,4.0,1999.140,3000.001
CI.STT.,CI,STT,,EHZ,34.78904,-118.46361,796.0,1981.120,2014.105
CI.SU2.,CI,SU2,,EHZ,32.94483,-115.8,160.8,1996.130,2001.177
CI.SUN.,CI,SUN,,"BHE,HHN,HHZ,HHE,BHZ,BHN,EHZ",34.21023,-117.694194,1652.0,1976.031,3000.001
CI.SUP.,CI,SUP,,EHZ,32.95537,-115.82547,177.0,1973.090,1996.151
CI.SVD.,CI,SVD,,"HHN,BHE,HHZ,HHE,BHZ,BHN",34.10647,-117.09822,605.0,1990.338,3000.001
CI.SWM.,CI,SWM,,"EHE,EHN,EHZ",34.71605,-118.58362,1184.0,1966.072,1996.249
CI.SWP.,CI,SWP,,"HHN,BHE,HHZ,HHE,BHZ,BHN",32.79184,-116.09718,265.0,2013.302,3000.001
CI.SWS.,CI,SWS,,"BHE,HHN,HHZ,HHE,BHZ,BHN,EHZ",32.94508,-115.79988,140.0,1997.263,3000.001
CI.SXT.,CI,SXT,,EHZ,34.3379,-119.2148,488.0,1994.033,2001.319
CI.SYL.,CI,SYL,,EHZ,34.3536,-118.45098,928.0,1994.020,1998.100
CI.SYN.,CI,SYN,,"HHN,BHE,HHZ,HHE,BHZ,BHN",34.60723,-120.0696,201.0,2013.338,3000.001
CI.SYP.,CI,SYP,,"BHE,HHN,HHZ,HHE,BHZ,BHN,EHZ",34.52781,-119.97832,1278.0,1967.158,3000.001
CI.SYS.,CI,SYS,,EHZ,32.57936,-116.91486,181.0,1981.100,1992.197
CI.TA2.,CI,TA2,,"HHN,BHE,HHZ,HHE,BHZ,BHN",34.38203,-117.67822,2249.0,1997.037,3000.001
CI.TAB.,CI,TAB,,"BHE,HHN,HHZ,HHE,BHZ,BHN,EHZ",34.38245,-117.68191,2274.0,1989.334,2008.128
CI.TCC.,CI,TCC,,EHZ,33.99465,-118.01397,195.0,1971.121,2002.026
CI.TEH.,CI,TEH,,"HHN,BHE,HHZ,HHE,BHZ,BHN",35.2913,-118.42079,846.0,2001.122,3000.001
CI.TEJ.,CI,TEJ,,"BHE,HHN,HHZ,HHE,BHZ,BHN,EHZ",35.23107,-118.68878,650.0,1981.059,3000.001
CI.TER.,CI,TER,,EHZ,35.33141,-119.36455,90.0,2004.350,3000.001
CI.TER2.,CI,TER2,,"HHN,BHE,HHZ,HHE,BHZ,BHN",35.33233,-119.36238,80.0,2019.192,3000.001
CI.TFT.,CI,TFT,,"HHN,BHE,HHZ,HHE,BHZ,BHN",35.14592,-119.41946,233.0,2001.303,3000.001
CI.THC.,CI,THC,,EHZ,34.90853,-118.66443,1688.0,1981.090,3000.001
CI.THM.,CI,THM,,"HHN,BHE,HHZ,HHE,BHZ,BHN",33.65066,-116.07734,60.0,2009.069,3000.001
CI.THP.,CI,THP,,EHZ,33.83172,-116.33896,121.1,1992.131,1992.197
CI.THR.,CI,THR,,EHZ,34.55319,-117.71916,980.0,1975.305,1976.153
CI.THX.,CI,THX,,"HHN,BHE,HHZ,HHE,BHZ,BHN",33.63495,-116.16402,-31.0,1999.027,2007.106
CI.TIN.,CI,TIN,,"BHE,HHN,HHZ,HHE,EHE,EHN,BHZ,BHN,EHZ",37.05422,-118.23009,1197.0,1932.001,3000.001
CI.TJR.,CI,TJR,,"BHE,HHN,HHZ,HHE,BHZ,BHN,EHZ",35.02722,-118.74373,398.0,1981.059,3000.001
CI.TM2.,CI,TM2,,EHZ,35.08687,-119.53541,989.0,1993.078,2010.228
CI.TM3.,CI,TM3,,EHZ,35.08691,-119.53593,1037.0,2012.261,2014.028
CI.TMB.,CI,TMB,,EHZ,35.08727,-119.53553,978.0,1976.213,1993.100
CI.TOP.,CI,TOP,,EHZ,33.52405,-116.42529,2611.0,1992.203,1994.079
CI.TOR.,CI,TOR,,"HHN,BHE,HHZ,HHE,BHZ,BHN",33.57526,-116.22584,4.0,2007.120,3000.001
CI.TOV.,CI,TOV,,"HHN,BHE,HHZ,HHE,BHZ,BHN",34.15607,-118.82039,298.0,1997.276,2007.068
CI.TOW.,CI,TOW,,EHZ,35.80885,-117.76493,653.0,1982.243,2014.164
CI.TOW2.,CI,TOW2,,"HHN,BHE,HHZ,HHE,BHZ,BHN",35.80856,-117.76488,685.0,2014.191,3000.001
CI.TPC.,CI,TPC,,EHZ,34.10564,-116.04939,686.0,1955.084,2021.252
CI.TPM.,CI,TPM,,EHZ,34.36266,-116.08201,1049.0,1999.201,3000.001
CI.TPO.,CI,TPO,,"BHE,HHN,HHZ,HHE,BHZ,BHN,EHZ",34.87883,-118.22864,769.0,1976.131,3000.001
CI.TTM.,CI,TTM,,EHZ,34.33537,-114.82826,1101.1,1974.120,1988.355
CI.TUQ.,CI,TUQ,,"HHN,BHE,HHZ,HHE,BHZ,BHN",35.43584,-115.92389,1350.0,2002.122,3000.001
CI.TWL.,CI,TWL,,EHZ,34.27827,-118.59548,352.0,1972.001,1999.084
CI.UPL.,CI,UPL,,"EHE,EHN,EHZ",34.14817,-117.6994,516.0,1990.075,1991.182
CI.USC.,CI,USC,,"HHN,BHE,HHZ,HHE,BHZ,BHN",34.01919,-118.28631,58.0,1993.048,3000.001
CI.VCP.,CI,VCP,,EHZ,33.23934,-117.02125,426.9,2017.081,3000.001
CI.VCS.,CI,VCS,,"HHN,BHE,HHZ,HHE,BHZ,BHN",34.48372,-118.11781,992.0,1997.252,3000.001
CI.VDJ.,CI,VDJ,,"HHN,BHE,HHZ,HHE,BHZ,BHN",34.18986,-114.57145,284.6,2016.280,3000.001
CI.VES.,CI,VES,,"HHN,BHE,HHZ,HHE,BHZ,BHN",35.84089,-119.08469,154.0,1999.273,3000.001
CI.VET.,CI,VET,,"EHE,EHN,EHZ",34.29678,-118.02833,1757.0,1991.176,1992.070
CI.VG2.,CI,VG2,,EHZ,33.83254,-116.81041,1465.0,1977.090,1994.176
CI.VGR.,CI,VGR,,EHZ,33.83754,-116.80963,1455.0,1975.335,1977.156
CI.VLO.,CI,VLO,,"BHE,HHN,HHZ,HHE,BHZ,BHN,EHZ",32.97181,-116.41064,518.0,2014.365,3000.001
CI.VLY.,CI,VLY,,"BHE,HHN,HHZ,HHE,BHZ,BHN,EHZ",33.736134,-117.156523,445.8,2013.302,3000.001
CI.VOG.,CI,VOG,,"HHN,BHE,HHZ,HHE,BHZ,BHN",36.32098,-119.38226,90.0,2011.146,3000.001
CI.VPD.,CI,VPD,,EHZ,33.81596,-117.76338,147.0,1971.248,2001.317
CI.VRD.,CI,VRD,,EHZ,34.21459,-118.27964,897.0,1994.018,1999.002
CI.VST.,CI,VST,,EHZ,33.15585,-117.232,76.0,1975.028,2001.317
CI.VTV.,CI,VTV,,"HHN,BHE,HHZ,HHE,BHZ,BHN",34.56065,-117.3296,843.0,1993.104,3000.001
CI.VVD.,CI,VVD,,EHZ,34.4435,-118.66332,451.0,1994.029,3000.001
CI.WAS.,CI,WAS,,EHZ,35.7377,-118.55743,1828.0,1980.098,2014.141
CI.WAS2.,CI,WAS2,,"HHN,BHE,HHZ,HHE,BHZ,BHN",35.7377,-118.55743,1828.0,2014.154,3000.001
CI.WBM.,CI,WBM,,"BHE,HHN,HHZ,HHE,BHZ,BHN,EHZ",35.60839,-117.89049,892.0,1979.269,3000.001
CI.WBP.,CI,WBP,,"HHN,BHE,HHZ,HHE,BHZ,BHN",35.87841,-118.07414,2494.6,2017.206,3000.001
CI.WBS.,CI,WBS,,"BHE,HHN,HHZ,HHE,BHZ,BHN,EHZ",35.53664,-118.14035,1927.0,1980.113,3000.001
CI.WCF.,CI,WCF,,EHZ,36.20831,-117.90469,1332.0,1975.267,1981.319
CI.WCH.,CI,WCH,,EHZ,35.87887,-118.07405,2461.0,1979.268,2017.222
CI.WCO.,CI,WCO,,EHZ,35.62248,-118.43836,1567.0,1979.270,1984.214
CI.WCP.,CI,WCP,,"EHN,EHZ",36.07098,-117.85102,1453.0,1982.079,1989.069
CI.WCS.,CI,WCS,,EHZ,36.02702,-117.76761,1135.0,1975.267,2014.182
CI.WCS2.,CI,WCS2,,"HHN,BHE,HHZ,HHE,BHZ,BHN",36.02521,-117.76526,1143.0,2014.195,3000.001
CI.WCX.,CI,WCX,,EHZ,35.71155,-117.59448,654.0,1978.233,1990.010
CI.WDY.,CI,WDY,,"EHE,EHN,EHZ",35.69998,-118.84421,457.0,1952.218,1975.270
CI.WER.,CI,WER,,"HHN,BHE,HHZ,HHE,BHZ,BHN",35.06053,-119.02711,130.0,2001.303,2004.191
CI.WES.,CI,WES,,"HHN,BHE,HHZ,HHE,BHZ,BHN",32.75904,-115.73161,-8.0,2001.023,3000.001
CI.WGR.,CI,WGR,,"HHN,BHE,HHZ,HHE,BHZ,BHN",34.51085,-119.27407,554.0,2001.213,3000.001
CI.WH2.,CI,WH2,,EHZ,34.31455,-114.40992,1198.0,1974.274,1977.356
CI.WHF.,CI,WHF,,"BHE,HHN,HHZ,HHE,BHZ,BHN,EHZ",35.69513,-118.35183,859.0,1979.143,3000.001
CI.WHS.,CI,WHS,,EHZ,36.10508,-117.76177,1411.0,1982.069,1990.010
CI.WHV.,CI,WHV,,EHZ,35.50989,-118.51904,971.0,1983.213,2002.120
CI.WI2.,CI,WI2,,"EHE,EHZ",33.27678,-115.58087,-63.0,1992.265,2014.162
CI.WIN.,CI,WIN,,EHZ,33.68299,-117.10366,600.0,1993.193,2002.120
CI.WIS.,CI,WIS,,"EHE,EHZ",33.27586,-115.5954,-102.0,1973.169,1992.289
CI.WJP.,CI,WJP,,EHZ,35.41094,-118.48196,1090.0,1979.141,2002.120
CI.WKT.,CI,WKT,,EHZ,35.79398,-118.44337,849.0,1982.349,1987.020
CI.WLH.,CI,WLH,,EHZ,36.15243,-118.31312,2645.0,1984.202,2014.142
CI.WLH2.,CI,WLH2,,"HHN,BHE,HHZ,HHE,BHZ,BHN",36.152072,-118.313186,2672.0,2014.155,3000.001
CI.WLK.,CI,WLK,,EHZ,33.05135,-115.49193,-82.0,1973.090,1989.074
CI.WLS.,CI,WLS,,EHZ,34.579612,-117.720112,888.0,2013.302,2015.244
CI.WLS2.,CI,WLS2,,"BHE,HHN,HHZ,HHE,BHZ,BHN,EHZ",34.578987,-117.719386,889.0,2015.261,3000.001
CI.WLT.,CI,WLT,,"HHN,BHE,HHZ,HHE,BHZ,BHN",34.00948,-117.95077,107.0,1999.319,3000.001
CI.WMD.,CI,WMD,,"HHN,BHE,HHZ,HHE,BHZ,BHN",33.03826,-115.58191,-45.0,2013.128,3000.001
CI.WMF.,CI,WMF,,EHZ,36.11774,-117.85484,1513.0,1982.079,2016.195
CI.WML.,CI,WML,,EHZ,33.01524,-115.62327,-92.0,1976.306,1983.329
CI.WNM.,CI,WNM,,"BHE,HHN,HHZ,HHE,BHZ,BHN,EHZ",35.8422,-117.90616,974.3,1975.268,3000.001
CI.WOF.,CI,WOF,,EHZ,35.53545,-118.71352,1306.0,1981.226,3000.001
CI.WOR.,CI,WOR,,"BHE,HHN,HHZ,HHE,BHZ,BHN,EHZ",35.69563,-118.24246,795.0,1979.143,3000.001
CI.WRC.,CI,WRC,,EHZ,35.94896,-117.64787,930.0,1981.091,2014.190
CI.WRC2.,CI,WRC2,,"HHN,BHE,HHZ,HHE,BHZ,BHN",35.9479,-117.65038,943.0,2014.190,3000.001
CI.WRV.,CI,WRV,,EHZ,36.00783,-117.89056,1039.0,1975.268,2014.190
CI.WRV2.,CI,WRV2,,"BHE,HHN,HHZ,HHE,BHZ,BHN,EHZ",36.00774,-117.8904,1070.0,2014.191,3000.001
CI.WS2.,CI,WS2,,EHZ,34.59417,-118.58033,1189.2,1998.069,2006.151
CI.WSC.,CI,WSC,,EHZ,35.70429,-117.88751,853.0,1982.069,1996.254
CI.WSH.,CI,WSH,,EHZ,35.59962,-117.49265,764.0,1982.268,2015.216
CI.WSP.,CI,WSP,,EHZ,34.59618,-118.57972,1188.0,1983.258,1998.079
CI.WSS.,CI,WSS,,"HHN,BHE,HHZ,HHE,BHZ,BHN",34.1717,-118.64971,316.0,2000.326,3000.001
CI.WTT.,CI,WTT,,"HHN,BHE,HHZ,HHE,BHZ,BHN",33.94869,-118.25547,37.0,2000.046,2011.005
CI.WTT2.,CI,WTT2,,"HHN,BHE,HHZ,HHE,BHZ,BHN",33.94867,-118.25539,37.0,2011.005,3000.001
CI.WVP.,CI,WVP,,EHZ,35.94945,-117.81724,1435.0,1982.079,2014.149
CI.WVP2.,CI,WVP2,,"BHE,HHN,HHZ,HHE,BHZ,BHN,EHZ",35.94939,-117.81769,1465.0,2014.192,3000.001
CI.WWC.,CI,WWC,,"HHN,BHE,HHZ,HHE,BHZ,BHN",33.94068,-116.40876,619.0,2009.091,3000.001
CI.WWF.,CI,WWF,,"BHE,HHN,HHZ,HHE,BHZ,BHN,EHZ",33.27884,-115.57888,-61.0,2014.041,3000.001
CI.WWP.,CI,WWP,,EHZ,35.73556,-118.08806,1117.0,1981.100,2016.025
CI.WWR.,CI,WWR,,EHZ,33.99007,-116.6558,655.0,1975.015,1997.150
CI.XMS.,CI,XMS,,EHZ,35.52314,-117.36418,667.0,1983.005,2002.120
CI.XTL.,CI,XTL,,EHZ,34.29597,-117.86223,1643.0,1989.052,2019.273
CI.XTL2.,CI,XTL2,,"HHN,BHE,HHZ,HHE,BHZ,BHN",34.295958,-117.862491,1677.8,2021.270,3000.001
CI.YAQ.,CI,YAQ,,EHZ,33.16661,-116.35386,430.0,1981.094,1998.033
CI.YEG.,CI,YEG,,EHZ,35.43658,-119.96009,907.0,1976.213,2017.144
CI.YEG2.,CI,YEG2,,"HHN,BHE,HHZ,HHE,BHZ,BHN",35.43831,-119.96306,963.0,2016.116,3000.001
CI.YMD.,CI,YMD,,EHZ,32.55395,-114.55352,39.0,1975.001,3000.001
CI.YUC.,CI,YUC,,EHZ,34.19675,-116.40576,1077.0,2013.106,3000.001
CI.YUH.,CI,YUH,,EHZ,32.64729,-115.92253,158.0,1981.152,2014.119
CI.YUH2.,CI,YUH2,,"HHN,BHE,HHZ,HHE,BHZ,BHN",32.64752,-115.92227,184.0,2014.119,3000.001
