id,network_code,station_code,location_code,channels,latitude,longitude,elevation
CI.ABL.,CI,ABL,,EHZ,34.84845,-119.22497,1975.0
CI.ACP.,CI,ACP,,"BHE,HHN,HHZ,BHZ,HHE,BHN",32.9546,-116.30338,392.2
CI.ADL.,CI,ADL,,EHZ,34.55581,-117.41804,868.0
CI.ADO.,CI,ADO,,"BHE,HHN,HHZ,BHZ,HHE,BHN",34.55046,-117.43391,908.0
CI.AGA.,CI,AGA,,"BHE,HHN,HHZ,BHZ,HHE,BHN",33.63838,-116.4011,809.0
CI.AGM.,CI,AGM,,"BHE,EHZ,HHN,HHZ,BHZ,HHE,BHN",32.84474,-114.78425,324.0
CI.AGO.,CI,AGO,,EHZ,34.14647,-118.76699,259.0
CI.ALP.,CI,ALP,,"BHE,HHN,HHZ,BHZ,HHE,BHN",34.68708,-118.29946,753.0
CI.ALV.,CI,ALV,,EHZ,35.06172,-116.62887,640.0
CI.AMS.,CI,AMS,,EHZ,33.1414,-115.25493,148.8
CI.ANG.,CI,ANG,,"BHE,HHN,HHZ,BHZ,HHE,BHN",33.503277,-116.808391,1050.4
CI.APL.,CI,APL,,EHZ,35.34149,-116.87464,959.0
CI.ARB.,CI,ARB,,"EHE,EHN,EHZ",34.00431,-117.6054,221.7
CI.ARG.,CI,ARG,,EHZ,36.0837,-117.4806,2500.0
CI.ARV.,CI,ARV,,"BHE,EHZ,HHN,HHZ,BHZ,HHE,BHN",35.1269,-118.83009,258.0
CI.ASP.,CI,ASP,,EHZ,35.86114,-119.38511,64.0
CI.AVC.,CI,AVC,,EHZ,33.333118,-118.335424,0.0
CI.AVM.,CI,AVM,,"BHE,HHN,HHZ,BHZ,HHE,BHN",35.06562,-116.61549,708.5
CI.AZU.,CI,AZU,,"EHE,EHN,EHZ",34.2198,-117.90121,1140.0
CI.BAC.,CI,BAC,,EHZ,33.6122,-117.0406,551.0
CI.BAI.,CI,BAI,,"BHE,EHZ,HHN,HHZ,BHZ,HHE,BHN",34.77695,-118.77335,1035.0
CI.BAK.,CI,BAK,,"BHE,HHN,HHZ,BHZ,HHE,BHN",35.34444,-119.10445,116.0
CI.BAL.,CI,BAL,,EHZ,34.30764,-118.96713,258.0
CI.BAR.,CI,BAR,,"BHE,EHN,EHZ,EHE,HHN,HHZ,BHZ,HHE,BHN",32.68005,-116.67215,529.0
CI.BAT.,CI,BAT,,EHZ,33.45828,-115.84153,-53.0
CI.BAW.,CI,BAW,,"BHE,HHN,HHZ,BHZ,HHE,BHN",34.839348,-117.14943,732.3
CI.BBC.,CI,BBC,,EHZ,34.2417,-116.90914,2016.0
CI.BBR.,CI,BBR,,"BHE,HHN,HHZ,BHZ,HHE,BHN",34.2623,-116.92075,2069.0
CI.BBS.,CI,BBS,,"BHE,HHN,HHZ,BHZ,HHE,BHN",33.92139,-116.98058,785.0
CI.BC2.,CI,BC2,,EHZ,33.65702,-115.46202,995.0
CI.BC3.,CI,BC3,,"BHE,EHZ,HHN,HHZ,BHZ,HHE,BHN",33.65515,-115.45366,1137.0
CI.BCC.,CI,BCC,,"BHE,HHN,HHZ,BHZ,HHE,BHN",33.57508,-117.26119,391.0
CI.BCH.,CI,BCH,,EHZ,35.185337,-120.085057,1109.0
CI.BCK.,CI,BCK,,EHZ,32.72492,-115.04475,-6.0
CI.BCM.,CI,BCM,,EHZ,33.65539,-115.44877,1141.2
CI.BCW.,CI,BCW,,"BHE,HHN,HHZ,BHZ,HHE,BHN",34.94009,-119.41313,1101.0
CI.BEL.,CI,BEL,,"BHE,HHN,HHZ,BHZ,HHE,BHN",34.0006,-115.9982,1388.0
CI.BFS.,CI,BFS,,"BHE,HHN,HHZ,BHZ,HHE,BHN",34.23883,-117.65853,1312.0
CI.BHM.,CI,BHM,,EHZ,34.27886,-116.61597,1806.0
CI.BHP.,CI,BHP,,"BHE,HHN,HHZ,BHZ,HHE,BHN",33.99053,-118.36171,81.0
CI.BKR.,CI,BKR,,"BHE,HHN,HHZ,BHZ,HHE,BHN",35.2693,-116.0703,275.0
CI.BLA.,CI,BLA,,"BHE,HHN,HHZ,BHZ,HHE,BHN",34.06948,-116.38896,1243.0
CI.BLA2.,CI,BLA2,,"BHE,HHN,HHZ,BHZ,HHE,BHN",34.06931,-116.38993,1247.0
CI.BLC.,CI,BLC,,"BHE,EHZ,HHN,HHZ,BHZ,HHE,BHN",34.24356,-118.67312,607.0
CI.BLK.,CI,BLK,,EHZ,35.08867,-117.21975,619.0
CI.BLU.,CI,BLU,,EHZ,34.40686,-117.72778,1843.0
CI.BLY.,CI,BLY,,"BHE,HHN,HHZ,BHZ,HHE,BHN",33.7503,-114.52375,201.0
CI.BMM.,CI,BMM,,EHZ,33.75673,-114.58642,516.0
CI.BMT.,CI,BMT,,EHZ,35.13641,-118.59723,1200.0
CI.BOM.,CI,BOM,,"BHE,HHN,HHZ,BHZ,HHE,BHN",33.36465,-115.72963,-54.0
CI.BON.,CI,BON,,EHZ,32.69732,-115.26902,-14.0
CI.BOO.,CI,BOO,,EHZ,34.87632,-117.91109,671.0
CI.BOR.,CI,BOR,,"BHE,HHN,HHZ,BHZ,HHE,BHN",33.2682,-116.41716,252.0
CI.BPK.,CI,BPK,,EHZ,34.12472,-114.21041,457.0
CI.BRA.,CI,BRA,,EHZ,32.97899,-115.54936,-67.0
CI.BRE.,CI,BRE,,"BHE,HHN,HHZ,BHZ,HHE,BHN",33.80776,-117.98116,24.0
CI.BRG.,CI,BRG,,EHZ,33.17139,-116.1747,205.0
CI.BRS.,CI,BRS,,EHZ,33.97145,-116.91265,1075.0
CI.BRT.,CI,BRT,,EHZ,34.61206,-117.96354,757.0
CI.BSC.,CI,BSC,,EHZ,32.73028,-115.05111,43.0
CI.BTC.,CI,BTC,,"BHE,HHN,HHZ,BHZ,HHE,BHN",33.01213,-115.21987,39.0
CI.BTL.,CI,BTL,,EHZ,34.25698,-117.00521,2527.0
CI.BTL2.,CI,BTL2,,"BHE,HHN,HHZ,BHZ,HHE,BHN",34.256841,-117.00543,2553.1
CI.BTP.,CI,BTP,,"BHE,HHN,HHZ,BHZ,HHE,BHN",34.68224,-118.57398,1702.0
CI.BUE.,CI,BUE,,"BHE,EHZ,HHN,HHZ,BHZ,HHE,BHN",34.612987,-120.196793,110.0
CI.BVH.,CI,BVH,,EHZ,34.07618,-118.3959,39.0
CI.CAB.,CI,CAB,,EHZ,34.15573,-118.64093,259.0
CI.CAC.,CI,CAC,,EHZ,34.13678,-118.12199,230.0
CI.CAH.,CI,CAH,,EHZ,33.49296,-116.72386,1313.0
CI.CAL.,CI,CAL,,EHZ,35.10331,-117.94924,690.0
CI.CALB.,CI,CALB,,"BHE,HHN,HHZ,BHZ,HHE,BHN",34.14302,-118.62839,276.0
CI.CAM.,CI,CAM,,EHZ,34.25451,-119.03419,222.0
CI.CAP.,CI,CAP,,"BHE,HHN,HHZ,BHZ,HHE,BHN",33.38822,-117.19495,285.0
CI.CAR.,CI,CAR,,"BHE,HHN,HHZ,BHZ,HHE,BHN",35.30819,-119.84583,765.0
CI.CAV.,CI,CAV,,EHZ,35.05071,-116.34534,558.0
CI.CBK.,CI,CBK,,EHZ,32.9158,-116.25226,355.0
CI.CCA.,CI,CCA,,"BHE,EHZ,HHN,HHZ,BHZ,HHE,BHN",35.15252,-118.01649,710.0
CI.CCC.,CI,CCC,,"BHE,HHN,HHZ,BHZ,HHE,BHN",35.52495,-117.36453,670.0
CI.CCK.,CI,CCK,,"BHE,HHN,HHZ,BHZ,HHE,BHN",35.14978,-118.197,1294.0
CI.CCM.,CI,CCM,,EHZ,33.42923,-115.46543,440.0
CI.CCR.,CI,CCR,,"EHE,EHN,EHZ",34.36082,-116.9409,1383.0
CI.CCT.,CI,CCT,,"BHE,HHN,HHZ,BHZ,HHE,BHN",33.896256,-117.414694,301.9
CI.CDD.,CI,CDD,,"BHE,HHN,HHZ,BHZ,HHE,BHN",32.58395,-114.35617,213.6
CI.CDM.,CI,CDM,,"BHE,HHN,HHZ,BHZ,HHE,BHN",34.36855,-119.341437,166.8
CI.CDY.,CI,CDY,,EHZ,34.83007,-116.33717,934.0
CI.CFD.,CI,CFD,,EHZ,34.399268,-119.515762,8.0
CI.CFL.,CI,CFL,,EHZ,34.33296,-118.02387,1560.0
CI.CFT.,CI,CFT,,"BHE,EHZ,HHN,HHZ,BHZ,HHE,BHN",34.03547,-117.11241,682.0
CI.CGO.,CI,CGO,,"BHE,HHN,HHZ,BHZ,HHE,BHN",36.5504,-117.80295,2795.0
CI.CH2.,CI,CH2,,EHZ,33.29624,-115.33693,349.2
CI.CHF.,CI,CHF,,"BHE,HHN,HHZ,BHZ,HHE,BHN",34.33341,-118.02585,1594.0
CI.CHI.,CI,CHI,,"BHE,EHZ,HHN,HHZ,BHZ,HHE,BHN",34.18156,-119.22244,3.0
CI.CHK.,CI,CHK,,"BHE,EHZ,HHN,HHZ,BHZ,HHE,BHN",34.067135,-118.971181,258.0
CI.CHL.,CI,CHL,,"BHE,HHN,HHZ,BHZ,HHE,BHN",33.910841,-117.683682,331.9
CI.CHM.,CI,CHM,,EHZ,34.55304,-114.57275,919.8
CI.CHN.,CI,CHN,,"BHE,HHN,HHZ,BHZ,HHE,BHN",33.99879,-117.68044,208.0
CI.CHP.,CI,CHP,,EHZ,34.80833,-119.01167,1590.0
CI.CHR.,CI,CHR,,"BHE,HHN,HHZ,BHZ,HHE,BHN",34.729019,-119.392693,1021.8
CI.CIA.,CI,CIA,,"BHE,HHN,HHZ,BHZ,HHE,BHN",33.401898,-118.415021,477.0
CI.CIS.,CI,CIS,,EHZ,33.40671,-118.40417,436.0
CI.CIU.,CI,CIU,,"BHE,HHN,HHZ,BHZ,HHE,BHN",33.44577,-118.483,36.5
CI.CJM.,CI,CJM,,"BHE,HHN,HHZ,BHZ,HHE,BHN",34.27117,-117.42448,1616.0
CI.CJV.,CI,CJV,,EHZ,34.52978,-118.1445,1296.0
CI.CJV2.,CI,CJV2,,"BHE,HHN,HHZ,BHZ,HHE,BHN",34.52978,-118.1445,1296.0
CI.CKC.,CI,CKC,,EHZ,34.13636,-117.17548,506.0
CI.CKP.,CI,CKP,,"BHE,HHN,HHZ,BHZ,HHE,BHN",33.55507,-114.8904,145.0
CI.CLC.,CI,CLC,,"BHE,EHN,EHZ,EHE,HHN,HHZ,BHZ,HHE,BHN",35.81574,-117.59751,775.0
CI.CLI.,CI,CLI,,"EHE,EHN,EHZ",33.14029,-115.52658,-92.0
CI.CLI2.,CI,CLI2,,EHZ,33.12112,-115.58016,-60.2
CI.CLM.,CI,CLM,,"EHE,EHN,EHZ",34.09613,-117.72297,317.0
CI.CLO.,CI,CLO,,"BHE,EHZ,HHN,HHZ,BHZ,HHE,BHN",34.22038,-119.00891,48.0
CI.CLT.,CI,CLT,,"BHE,HHN,HHZ,BHZ,HHE,BHN",34.09284,-117.31687,325.0
CI.CO2.,CI,CO2,,EHZ,33.84524,-115.34351,242.0
CI.COA.,CI,COA,,"BHE,EHZ,HHN,HHZ,BHZ,HHE,BHN",32.86341,-115.12339,36.0
CI.COK.,CI,COK,,EHZ,32.84946,-115.72788,-50.0
CI.COK2.,CI,COK2,,EHZ,32.85053,-115.7284,-14.0
CI.COO.,CI,COO,,"BHE,HHN,HHZ,BHZ,HHE,BHN",33.89604,-118.21639,20.9
CI.COQ.,CI,COQ,,EHZ,33.86054,-117.51049,486.6
CI.COT.,CI,COT,,EHZ,33.3049,-115.35409,244.0
CI.COY.,CI,COY,,EHZ,33.36296,-116.31114,218.0
CI.CPE.,CI,CPE,,EHZ,32.89244,-117.10143,143.0
CI.CPM.,CI,CPM,,EHZ,34.15442,-116.19771,897.0
CI.CPO.,CI,CPO,,"BHE,EHZ,HHN,HHZ,BHZ,HHE,BHN",32.64266,-116.48514,838.0
CI.CPP.,CI,CPP,,"BHE,HHN,HHZ,BHZ,HHE,BHN",34.0602,-117.809,205.0
CI.CPT.,CI,CPT,,EHZ,33.30339,-117.34081,14.0
CI.CPT2.,CI,CPT2,,"BHE,EHZ,HHN,HHZ,BHZ,HHE,BHN",33.34183,-117.32502,771.0
CI.CRF.,CI,CRF,,EHZ,33.873521,-118.039376,18.1
CI.CRG.,CI,CRG,,"BHE,EHZ,HHN,HHZ,BHZ,HHE,BHN",35.2422,-119.72486,1169.0
CI.CRN.,CI,CRN,,EHZ,33.87574,-117.56106,204.8
CI.CRP.,CI,CRP,,"BHE,HHN,HHZ,BHZ,HHE,BHN",34.13624,-118.12705,233.0
CI.CRR.,CI,CRR,,"BHE,EHZ,HHN,HHZ,BHZ,HHE,BHN",32.88682,-115.96918,66.0
CI.CRS.,CI,CRS,,EHZ,34.24336,-117.26248,1430.0
CI.CRY.,CI,CRY,,"BHE,HHN,HHZ,BHZ,HHE,BHN",34.778248,-119.628105,1527.9
CI.CSH.,CI,CSH,,"BHE,HHN,HHZ,BHZ,HHE,BHN",33.6442,-116.5956,1637.0
CI.CSL.,CI,CSL,,EHZ,34.496513,-118.616208,353.9
CI.CTC.,CI,CTC,,"BHE,HHN,HHZ,BHZ,HHE,BHN",33.65516,-115.99006,538.0
CI.CTD.,CI,CTD,,"HHN,HHZ,HHE",33.35486,-118.44436,190.0
CI.CTW.,CI,CTW,,"BHE,EHZ,HHN,HHZ,BHZ,HHE,BHN",33.67728,-115.87214,504.0
CI.CVW.,CI,CVW,,"BHE,EHZ,HHN,HHZ,BHZ,HHE,BHN",34.92217,-118.93913,804.8
CI.CWC.,CI,CWC,,"BHE,EHN,EHZ,EHE,HHN,HHZ,BHZ,HHE,BHN",36.439047,-118.080495,1569.5
CI.CWP.,CI,CWP,,"BHE,HHN,HHZ,BHZ,HHE,BHN",33.557975,-117.55775,242.6
CI.CYP.,CI,CYP,,"BHE,HHN,HHZ,BHZ,HHE,BHN",32.906111,-116.627222,1013.7
CI.CZN.,CI,CZN,,"BHE,EHZ,HHN,HHZ,BHZ,HHE,BHN",33.91375,-116.78409,538.0
CI.DAH.,CI,DAH,,EHZ,32.73458,-115.55859,-42.0
CI.DAN.,CI,DAN,,"BHE,HHN,HHZ,BHZ,HHE,BHN",34.63745,-115.38115,428.0
CI.DAW.,CI,DAW,,"BHE,HHN,HHZ,BHZ,HHE,BHN",36.27148,-117.59214,1477.4
CI.DB2.,CI,DB2,,EHZ,33.73521,-117.06289,591.0
CI.DBM.,CI,DBM,,EHZ,34.97877,-118.36107,1162.0
CI.DEC.,CI,DEC,,"BHE,HHN,HHZ,BHZ,HHE,BHN",34.25353,-118.33383,519.0
CI.DEV.,CI,DEV,,"BHE,HHN,HHZ,BHZ,HHE,BHN",33.93597,-116.57794,337.0
CI.DGR.,CI,DGR,,"BHE,HHN,HHZ,BHZ,HHE,BHN",33.65001,-117.00947,650.0
CI.DHS.,CI,DHS,,EHZ,33.92638,-116.38629,396.0
CI.DJJ.,CI,DJJ,,"BHE,HHN,HHZ,BHZ,HHE,BHN",34.10618,-118.45505,268.0
CI.DLA.,CI,DLA,,"BHE,HHN,HHZ,BHZ,HHE,BHN",33.84822,-118.09624,14.0
CI.DLT.,CI,DLT,,EHZ,34.17003,-117.81083,550.2
CI.DNR.,CI,DNR,,"BHE,HHN,HHZ,BHZ,HHE,BHN",33.56667,-116.63056,1274.0
CI.DPP.,CI,DPP,,"BHE,HHN,HHZ,BHZ,HHE,BHN",32.99889,-116.94187,463.0
CI.DRC.,CI,DRC,,"BHE,HHN,HHZ,BHZ,HHE,BHN",32.8054,-115.44654,-15.0
CI.DRE.,CI,DRE,,"BHE,HHN,HHZ,BHZ,HHE,BHN",32.80532,-115.44679,-13.0
CI.DSC.,CI,DSC,,"BHE,HHN,HHZ,BHZ,HHE,BHN",35.14255,-116.10395,283.0
CI.DSN10.A0,CI,DSN10,A0,"HHN,HHZ,HHE",34.136187,-118.127443,232.0
CI.DSN10.B0,CI,DSN10,B0,"HHN,HHZ,HHE",34.136187,-118.127443,232.0
CI.DSN5.B0,CI,DSN5,B0,"BHE,HHN,HHZ,BHZ,HHE,BHN",34.17141,-118.18523,341.0
CI.DSN5.A0,CI,DSN5,A0,"BHE,HHN,HHZ,BHZ,HHE,BHN",34.17141,-118.18523,341.0
CI.DSN5.50,CI,DSN5,50,"BHE,HHN,HHZ,BHZ,HHE,BHN",34.17141,-118.18523,341.0
CI.DSN5.51,CI,DSN5,51,"BHE,HHN,HHZ,BHZ,HHE,BHN",34.17141,-118.18523,341.0
CI.DSN6.60,CI,DSN6,60,"BHE,HHN,HHZ,BHZ,HHE,BHN",34.17141,-118.18523,341.0
CI.DSN6.61,CI,DSN6,61,"BHE,HHN,HHZ,BHZ,HHE,BHN",34.17141,-118.18523,341.0
CI.DSN6.A0,CI,DSN6,A0,"BHE,HHN,HHZ,BHZ,HHE,BHN",34.17141,-118.18523,341.0
CI.DSN6.B0,CI,DSN6,B0,"BHE,HHN,HHZ,BHZ,HHE,BHN",34.17141,-118.18523,341.0
CI.DTC.,CI,DTC,,EHZ,34.424157,-118.661913,382.7
CI.DTP.,CI,DTP,,"BHE,EHZ,HHN,HHZ,BHZ,HHE,BHN",35.26742,-117.84581,908.0
CI.DVL.,CI,DVL,,EHZ,34.19986,-117.32899,554.0
CI.DVT.,CI,DVT,,"BHE,HHN,HHZ,BHZ,HHE,BHN",32.65915,-116.10061,881.0
CI.DZA.,CI,DZA,,"BHE,HHN,HHZ,BHZ,HHE,BHN",32.60657,-116.77477,554.7
CI.EAG.,CI,EAG,,EHZ,33.84905,-115.47394,319.0
CI.ECF.,CI,ECF,,EHZ,34.45801,-119.09154,956.0
CI.EDW.,CI,EDW,,"BHE,HHN,HHZ,BHZ,HHE,BHN",34.88303,-117.99106,789.0
CI.EDW2.,CI,EDW2,,"BHE,HHN,HHZ,BHZ,HHE,BHN",34.8811,-117.99388,772.0
CI.EL2.,CI,EL2,,EHZ,34.5295,-117.6435,979.5
CI.ELM.,CI,ELM,,EHZ,34.52638,-117.64064,954.0
CI.ELO.,CI,ELO,,"BHE,HHN,HHZ,BHZ,HHE,BHN",32.765292,-115.620876,1.0
CI.ELR.,CI,ELR,,EHZ,33.14747,-115.83335,-97.0
CI.ELS.,CI,ELS,,EHZ,33.64698,-117.42812,790.0
CI.ELS2.,CI,ELS2,,"BHE,HHN,HHZ,BHZ,HHE,BHN",33.64907,-117.42604,844.0
CI.EML.,CI,EML,,"BHE,HHN,HHZ,BHZ,HHE,BHN",32.89083,-116.84566,161.0
CI.EMS.,CI,EMS,,EHZ,32.73921,-114.98521,11.0
CI.EOC.,CI,EOC,,"BHE,EHZ,HHN,HHZ,BHZ,HHE,BHN",34.450291,-119.769411,75.0
CI.ERP.,CI,ERP,,EHZ,32.74311,-115.66354,-42.0
CI.ERR.,CI,ERR,,"BHE,HHN,HHZ,BHZ,HHE,BHN",33.11675,-115.82267,-56.0
CI.ESI.,CI,ESI,,EHZ,33.67388,-117.32643,388.0
CI.ESI2.,CI,ESI2,,"BHE,EHZ,HHN,HHZ,BHZ,HHE,BHN",33.67493,-117.32592,388.0
CI.EW2.,CI,EW2,,"EHE,EHN,EHZ",33.94059,-116.40839,639.0
CI.EWC.,CI,EWC,,"EHE,EHN,EHZ",33.93724,-116.38216,466.0
CI.FAL.,CI,FAL,,EHZ,34.30985,-117.81,2324.2
CI.FDR.,CI,FDR,,"BHE,HHN,HHZ,BHZ,HHE,BHN",35.64262,-118.93433,352.1
CI.FHO.,CI,FHO,,"BHE,HHN,HHZ,BHZ,HHE,BHN",34.09355,-116.93588,1614.0
CI.FIG.,CI,FIG,,"BHE,HHN,HHZ,BHZ,HHE,BHN",34.72832,-119.98803,945.0
CI.FIL.,CI,FIL,,EHZ,34.42335,-118.83531,205.0
CI.FLL.,CI,FLL,,EHZ,34.39727,-118.91807,103.0
CI.FLS.,CI,FLS,,EHZ,34.97036,-117.03909,990.0
CI.FMA.,CI,FMA,,EHZ,33.71828,-118.28485,15.0
CI.FMO.,CI,FMO,,"BHE,EHZ,HHN,HHZ,BHZ,HHE,BHN",34.409286,-118.920887,137.0
CI.FMP.,CI,FMP,,"BHE,HHN,HHZ,BHZ,HHE,BHN",33.71264,-118.29381,89.0
CI.FNK.,CI,FNK,,EHZ,33.38306,-115.63844,-36.0
CI.FON.,CI,FON,,EHZ,34.09957,-117.43876,388.8
CI.FOX.,CI,FOX,,EHZ,34.74431,-118.23255,683.0
CI.FOX2.,CI,FOX2,,"BHE,HHN,HHZ,BHZ,HHE,BHN",34.7339,-118.24046,719.7
CI.FPC.,CI,FPC,,"BHE,HHN,HHZ,BHZ,HHE,BHN",35.082,-117.58267,916.7
CI.FRG.,CI,FRG,,EHZ,33.75722,-116.06228,887.0
CI.FRK.,CI,FRK,,"BHE,EHZ,HHN,HHZ,BHZ,HHE,BHN",33.40209,-115.63835,95.5
CI.FRM.,CI,FRM,,EHZ,34.77518,-118.96935,2443.0
CI.FSR.,CI,FSR,,"BHE,HHN,HHZ,BHZ,HHE,BHN",35.66511,-117.42371,570.4
CI.FTC.,CI,FTC,,EHZ,34.87151,-118.9002,986.0
CI.FTM.,CI,FTM,,EHZ,32.55493,-114.33423,213.0
CI.FUL.,CI,FUL,,EHZ,33.8717,-117.92251,51.0
CI.FUR.,CI,FUR,,"BHE,HHN,HHZ,BHZ,HHE,BHN",36.46703,-116.86322,-37.0
CI.GAL.,CI,GAL,,"EHE,EHN,EHZ",35.21367,-117.75551,936.0
CI.GATR.,CI,GATR,,"BHE,HHN,HHZ,BHZ,HHE,BHN",34.55266,-120.50235,590.0
CI.GAV.,CI,GAV,,EHZ,34.02248,-117.50492,262.0
CI.GCC.,CI,GCC,,EHZ,34.32758,-118.31888,726.6
CI.GDF.,CI,GDF,,"BHE,HHN,HHZ,BHZ,HHE,BHN",34.4793,-118.91676,756.3
CI.GFF.,CI,GFF,,"BHE,EHZ,HHN,HHZ,BHZ,HHE,BHN",34.923805,-115.072662,791.1
CI.GFP.,CI,GFP,,"EHE,EHN,EHZ",34.13165,-118.31978,339.0
CI.GFS.,CI,GFS,,"BHE,EHZ,HHN,HHZ,BHZ,HHE,BHN",34.476604,-120.214358,71.1
CI.GLA.,CI,GLA,,"BHE,EHN,EHZ,EHE,HHN,HHZ,BHZ,HHE,BHN",33.05149,-114.82706,610.0
CI.GMA.,CI,GMA,,"BHE,HHN,HHZ,BHZ,HHE,BHN",34.29148,-116.38256,848.0
CI.GMR.,CI,GMR,,"BHE,HHN,HHZ,BHZ,HHE,BHN",34.78457,-115.65994,1326.0
CI.GOR.,CI,GOR,,"BHE,HHN,HHZ,BHZ,HHE,BHN",33.1537,-117.22921,138.0
CI.GOU.,CI,GOU,,"BHE,EHZ,HHN,HHZ,BHZ,HHE,BHN",34.22119,-118.18834,587.0
CI.GPO.,CI,GPO,,"BHE,HHN,HHZ,BHZ,HHE,BHN",35.6494,-117.6619,705.0
CI.GR2.,CI,GR2,,"BHE,HHN,HHZ,BHZ,HHE,BHN",34.11816,-118.30024,342.0
CI.GRA.,CI,GRA,,"BHE,HHN,HHZ,BHZ,HHE,BHN",36.99608,-117.36621,689.0
CI.GRH.,CI,GRH,,"EHE,EHN,EHZ",34.30803,-118.55954,723.0
CI.GRP.,CI,GRP,,EHZ,34.80481,-115.60705,1261.1
CI.GSA.,CI,GSA,,"EHE,EHN,EHZ",34.13677,-118.1283,234.0
CI.GSC.,CI,GSC,,"BHE,EHZ,HHN,HHZ,BHZ,HHE,BHN",35.30177,-116.80574,1000.0
CI.GTM.,CI,GTM,,EHZ,34.2946,-116.356,836.0
CI.GVR.,CI,GVR,,"EHE,EHN,EHZ",34.04972,-118.11995,141.0
CI.GVR.20,CI,GVR,20,EHZ,34.04972,-118.11995,141.0
CI.HAI.,CI,HAI,,"EHE,EHN,EHZ",36.13664,-117.94753,1110.0
CI.HAR.,CI,HAR,,"BHE,HHN,HHZ,BHZ,HHE,BHN",35.0114,-117.29909,620.0
CI.HAV.,CI,HAV,,EHZ,35.51,-118.51667,990.0
CI.HAY.,CI,HAY,,EHZ,33.70736,-115.63892,413.0
CI.HDB.,CI,HDB,,EHZ,34.40074,-116.28736,875.0
CI.HDG.,CI,HDG,,EHZ,34.42886,-116.3058,1302.0
CI.HDH.,CI,HDH,,"BHE,HHN,HHZ,BHZ,HHE,BHN",34.77529,-118.63999,964.6
CI.HEC.,CI,HEC,,"BHE,HHN,HHZ,BHZ,HHE,BHN",34.8294,-116.335,920.0
CI.HHL.,CI,HHL,,"BHE,HHN,HHZ,BHZ,HHE,BHN",34.600796,-119.748579,1347.9
CI.HIW.,CI,HIW,,"BHE,HHN,HHZ,BHZ,HHE,BHN",35.03998,-115.38423,1276.9
CI.HLL.,CI,HLL,,"BHE,HHN,HHZ,BHZ,HHE,BHN",34.17643,-118.35967,193.0
CI.HLN.,CI,HLN,,EHZ,34.12128,-117.21897,358.9
CI.HMT.,CI,HMT,,EHZ,33.70883,-117.00392,582.0
CI.HMT2.,CI,HMT2,,"BHE,HHN,HHZ,BHZ,HHE,BHN",33.708115,-117.001524,593.0
CI.HOD.,CI,HOD,,EHZ,34.83886,-117.24753,807.0
CI.HOL.,CI,HOL,,EHZ,34.45825,-117.84505,1269.0
CI.HOT.,CI,HOT,,EHZ,33.3144,-116.58236,1934.0
CI.HRV.,CI,HRV,,"BHE,HHN,HHZ,BHZ,HHE,BHN",34.72711,-118.8044,917.9
CI.HSP.,CI,HSP,,EHZ,32.74691,-115.56259,-54.0
CI.HYS.,CI,HYS,,"BHE,EHZ,HHN,HHZ,BHZ,HHE,BHN",34.86532,-117.56975,833.0
CI.IBP.,CI,IBP,,"BHE,HHN,HHZ,BHZ,HHE,BHN",32.66112,-116.09286,879.0
CI.IDO.,CI,IDO,,"BHE,HHN,HHZ,BHZ,HHE,BHN",33.79678,-116.22152,469.0
CI.IDQ.,CI,IDQ,,EHZ,33.76795,-116.23897,29.0
CI.IDY.,CI,IDY,,"BHE,EHZ,HHN,HHZ,BHZ,HHE,BHN",33.74642,-116.71536,1632.0
CI.IKP.,CI,IKP,,"BHE,EHZ,HHN,HHZ,BHZ,HHE,BHN",32.65012,-116.10948,906.0
CI.IMP.,CI,IMP,,"BHE,HHN,HHZ,BHZ,HHE,BHN",32.90147,-115.56071,-27.0
CI.IND.,CI,IND,,EHZ,33.81673,-116.2304,324.0
CI.ING.,CI,ING,,EHZ,32.98865,-115.31024,-33.0
CI.INS.,CI,INS,,EHZ,33.93572,-116.19512,1654.0
CI.IPT.,CI,IPT,,"BHE,HHN,HHZ,BHZ,HHE,BHN",34.19701,-117.28498,943.0
CI.IR2.,CI,IR2,,EHZ,34.38807,-118.39972,562.0
CI.IRC.,CI,IRC,,EHZ,34.38851,-118.40304,533.0
CI.IRM.,CI,IRM,,"BHE,HHN,HHZ,BHZ,HHE,BHN",34.15738,-115.14513,567.0
CI.IRN.,CI,IRN,,EHZ,34.16005,-115.18476,990.7
CI.IRS.,CI,IRS,,EHZ,33.19086,-115.42904,-43.0
CI.ISA.,CI,ISA,,"BHE,EHN,EHZ,EHE,HHN,HHZ,BHZ,HHE,BHN",35.66278,-118.47403,873.0
CI.IVY.,CI,IVY,,"BHE,EHZ,HHN,HHZ,BHZ,HHE,BHN",33.76025,-117.47678,330.0
CI.JAW.,CI,JAW,,EHZ,35.31578,-118.04546,711.0
CI.JCS.,CI,JCS,,"BHE,HHN,HHZ,BHZ,HHE,BHN",33.0859,-116.5959,1264.0
CI.JEM.,CI,JEM,,"BHE,HHN,HHZ,BHZ,HHE,BHN",33.08098,-116.59755,1308.0
CI.JFS.,CI,JFS,,EHZ,35.35157,-117.67291,1393.0
CI.JNH.,CI,JNH,,EHZ,34.44795,-117.95705,1289.0
CI.JNH2.,CI,JNH2,,"BHE,HHN,HHZ,BHZ,HHE,BHN",34.448941,-117.95541,1305.0
CI.JPLS.,CI,JPLS,,"BHE,HHN,HHZ,BHZ,HHE,BHN",34.2053,-118.17368,465.6
CI.JRC.,CI,JRC,,"BHE,HHN,HHZ,BHZ,HHE,BHN",35.9823,-117.8076,1452.0
CI.JRC2.,CI,JRC2,,"BHE,HHN,HHZ,BHZ,HHE,BHN",35.98249,-117.80885,1469.0
CI.JTH.,CI,JTH,,"BHE,HHN,HHZ,BHZ,HHE,BHN",34.12644,-116.03785,609.4
CI.JTR.,CI,JTR,,EHZ,33.81405,-115.90095,1380.3
CI.JUL.,CI,JUL,,EHZ,33.04817,-116.61357,1260.0
CI.JUN.,CI,JUN,,EHZ,34.46969,-117.87867,1166.0
CI.JVA.,CI,JVA,,"BHE,HHN,HHZ,BHZ,HHE,BHN",34.36622,-116.61266,904.0
CI.KBY.,CI,KBY,,EHZ,33.04024,-115.70177,-99.0
CI.KEE.,CI,KEE,,EHZ,33.63856,-116.65425,1359.0
CI.KIK.,CI,KIK,,EHZ,34.15037,-118.10156,237.2
CI.KML.,CI,KML,,"BHE,EHZ,HHN,HHZ,BHZ,HHE,BHN",33.59738,-117.87909,9.0
CI.KNO.,CI,KNO,,EHZ,35.48333,-118.52833,1090.0
CI.KRC.,CI,KRC,,EHZ,35.32665,-119.7459,682.0
CI.KRV1.,CI,KRV1,,"BHE,HHN,HHZ,BHZ,HHE,BHN",35.45962,-118.77905,314.9
CI.KRV3.,CI,KRV3,,"BHE,HHN,HHZ,BHZ,HHE,BHN",35.77427,-118.43324,842.8
CI.KYP.,CI,KYP,,EHZ,34.1012,-118.88017,686.0
CI.KYV.,CI,KYV,,"BHE,HHN,HHZ,BHZ,HHE,BHN",33.92545,-116.1734,1498.2
CI.LAF.,CI,LAF,,"BHE,HHN,HHZ,BHZ,HHE,BHN",33.86889,-118.33143,20.0
CI.LAN.,CI,LAN,,EHZ,34.72683,-118.05177,684.0
CI.LAQ.,CI,LAQ,,EHZ,33.62798,-116.28051,-4.0
CI.LAT.,CI,LAT,,"BHE,EHZ,HHN,HHZ,BHZ,HHE,BHN",34.04449,-118.77643,351.0
CI.LAV.,CI,LAV,,EHZ,34.76597,-116.2888,814.0
CI.LBW2.,CI,LBW2,,"BHE,HHN,HHZ,BHZ,HHE,BHN",33.798,-118.08837,-16.3
CI.LCG.,CI,LCG,,"BHE,HHN,HHZ,BHZ,HHE,BHN",34.00033,-118.37794,108.0
CI.LCP.,CI,LCP,,"BHE,HHN,HHZ,BHZ,HHE,BHN",34.73551,-120.27996,199.0
CI.LDF.,CI,LDF,,"BHE,HHN,HHZ,BHZ,HHE,BHN",35.13066,-115.18416,1239.0
CI.LDR.,CI,LDR,,"BHE,HHN,HHZ,BHZ,HHE,BHN",34.9906,-118.34156,1121.0
CI.LED.,CI,LED,,EHZ,34.4677,-115.93729,807.0
CI.LEO.,CI,LEO,,"BHE,EHZ,HHN,HHZ,BHZ,HHE,BHN",34.63064,-118.30505,1025.0
CI.LEV.,CI,LEV,,EHZ,34.614048,-118.289268,933.0
CI.LFP.,CI,LFP,,"BHE,HHN,HHZ,BHZ,HHE,BHN",34.305103,-118.487967,368.0
CI.LGA.,CI,LGA,,EHZ,32.75976,-114.49356,18.0
CI.LGB.,CI,LGB,,"BHE,HHN,HHZ,BHZ,HHE,BHN",33.9753,-118.14918,42.0
CI.LGC.,CI,LGC,,EHZ,33.607,-117.758,112.0
CI.LGU.,CI,LGU,,"BHE,HHN,HHZ,BHZ,HHE,BHN",34.10819,-119.06587,416.0
CI.LHU.,CI,LHU,,EHZ,34.67092,-118.41259,1000.0
CI.LJB.,CI,LJB,,"EHE,EHN,EHZ",34.59092,-117.8489,861.0
CI.LJC.,CI,LJC,,"EHE,EHN,EHZ",32.8634,-117.25414,11.2
CI.LJR.,CI,LJR,,"BHE,HHN,HHZ,BHZ,HHE,BHN",34.80762,-118.86775,1443.0
CI.LKH.,CI,LKH,,"BHE,HHN,HHZ,BHZ,HHE,BHN",33.23598,-116.75876,847.0
CI.LKL.,CI,LKL,,"BHE,HHN,HHZ,BHZ,HHE,BHN",34.61594,-117.82493,810.0
CI.LLA.,CI,LLA,,EHZ,34.8536,-117.48694,847.9
CI.LLN.,CI,LLN,,EHZ,34.48532,-117.84648,981.0
CI.LLS.,CI,LLS,,"BHE,HHN,HHZ,BHZ,HHE,BHN",33.68447,-117.94304,8.0
CI.LMH.,CI,LMH,,"BHE,EHZ,HHN,HHZ,BHZ,HHE,BHN",33.74418,-117.39135,496.0
CI.LMR.,CI,LMR,,"BHE,HHN,HHZ,BHZ,HHE,BHN",34.93426,-117.69661,965.0
CI.LMR2.,CI,LMR2,,"BHE,HHN,HHZ,BHZ,HHE,BHN",34.93439,-117.69629,964.0
CI.LMS.,CI,LMS,,"BHE,HHN,HHZ,BHZ,HHE,BHN",33.81744,-117.445,443.0
CI.LMY.,CI,LMY,,"BHE,HHN,HHZ,BHZ,HHE,BHN",34.733165,-119.10391,1575.0
CI.LOC.,CI,LOC,,"BHE,HHN,HHZ,BHZ,HHE,BHN",34.690735,-120.446901,95.0
CI.LOK.,CI,LOK,,EHZ,34.72444,-119.09279,1538.0
CI.LPC.,CI,LPC,,"BHE,HHN,HHZ,BHZ,HHE,BHN",34.31478,-117.54642,1351.0
CI.LRL.,CI,LRL,,"BHE,EHZ,HHN,HHZ,BHZ,HHE,BHN",35.47954,-117.68212,1340.0
CI.LRM.,CI,LRM,,EHZ,35.47737,-117.69,1222.0
CI.LRR.,CI,LRR,,EHZ,34.52629,-118.02867,880.0
CI.LRR2.,CI,LRR2,,"BHE,HHN,HHZ,BHZ,HHE,BHN",34.52706,-118.02998,906.0
CI.LTC.,CI,LTC,,EHZ,33.49378,-115.077,275.0
CI.LTM.,CI,LTM,,EHZ,33.91505,-114.91908,749.6
CI.LTP.,CI,LTP,,"BHE,HHN,HHZ,BHZ,HHE,BHN",33.8811,-118.17568,20.0
CI.LUC.,CI,LUC,,EHZ,34.45476,-116.96474,855.0
CI.LUC2.,CI,LUC2,,"BHE,HHN,HHZ,BHZ,HHE,BHN",34.45638,-116.96423,886.0
CI.LUG.,CI,LUG,,"BHE,HHN,HHZ,BHZ,HHE,BHN",34.3656,-117.36683,1140.0
CI.LUS.,CI,LUS,,"BHE,HHN,HHZ,BHZ,HHE,BHN",33.01375,-117.16305,120.7
CI.LVO.,CI,LVO,,"BHE,HHN,HHZ,BHZ,HHE,BHN",34.555798,-119.88387,275.6
CI.LVY.,CI,LVY,,"BHE,EHZ,HHN,HHZ,BHZ,HHE,BHN",34.17408,-119.15636,11.8
CI.LYP.,CI,LYP,,"BHE,HHN,HHZ,BHZ,HHE,BHN",32.70333,-116.7548,886.4
CI.MAG.,CI,MAG,,EHZ,35.36165,-118.92282,135.0
CI.MAN.,CI,MAN,,"BHE,HHN,HHZ,BHZ,HHE,BHN",34.8937,-120.08073,967.7
CI.MAR.,CI,MAR,,EHZ,35.0026,-119.34022,411.0
CI.MCT.,CI,MCT,,"BHE,HHN,HHZ,BHZ,HHE,BHN",34.22645,-116.04073,661.0
CI.MDA.,CI,MDA,,EHZ,33.9138,-117.00067,820.0
CI.MEC.,CI,MEC,,EHZ,33.63538,-116.02928,448.0
CI.MES.,CI,MES,,EHZ,34.263111,-119.095882,69.2
CI.MGE.,CI,MGE,,"BHE,HHN,HHZ,BHZ,HHE,BHN",33.81841,-116.36874,68.0
CI.MIR.,CI,MIR,,EHZ,33.41621,-116.08171,30.0
CI.MLAC.,CI,MLAC,,"BHE,HHN,HHZ,BHZ,HHE,BHN",37.63019,-118.83605,2162.0
CI.MLL.,CI,MLL,,EHZ,34.09125,-116.93713,1480.0
CI.MLS.,CI,MLS,,"BHE,HHN,HHZ,BHZ,HHE,BHN",34.0046,-117.56162,230.0
CI.MMC.,CI,MMC,,EHZ,33.57304,-117.76258,55.1
CI.MNO.,CI,MNO,,"BHE,EHZ,HHN,HHZ,BHZ,HHE,BHN",33.94738,-117.17278,564.0
CI.MNT.,CI,MNT,,EHZ,34.4569,-118.4444,701.0
CI.MOP.,CI,MOP,,"BHE,HHN,HHZ,BHZ,HHE,BHN",34.28096,-118.90469,141.0
CI.MOR.,CI,MOR,,"BHE,EHZ,HHN,HHZ,BHZ,HHE,BHN",33.50388,-117.13993,331.0
CI.MOV.,CI,MOV,,EHZ,34.15587,-116.50247,1246.9
CI.MPI.,CI,MPI,,"BHE,HHN,HHZ,BHZ,HHE,BHN",34.81258,-119.1453,2673.0
CI.MPM.,CI,MPM,,"BHE,HHN,HHZ,BHZ,HHE,BHN",36.05799,-117.48901,1839.0
CI.MPP.,CI,MPP,,"BHE,HHN,HHZ,BHZ,HHE,BHN",34.88848,-119.81362,1739.0
CI.MRV.,CI,MRV,,EHZ,34.06137,-116.5438,936.0
CI.MSC.,CI,MSC,,"BHE,HHN,HHZ,BHZ,HHE,BHN",34.03852,-116.64795,938.0
CI.MSJ.,CI,MSJ,,"BHE,HHN,HHZ,BHZ,HHE,BHN",33.80801,-116.96789,466.0
CI.MTA.,CI,MTA,,"BHE,EHZ,HHN,HHZ,BHZ,HHE,BHN",33.42654,-117.37927,785.0
CI.MTG.,CI,MTG,,"BHE,HHN,HHZ,BHZ,HHE,BHN",33.19915,-116.64727,1092.0
CI.MTL.,CI,MTL,,"BHE,HHN,HHZ,BHZ,HHE,BHN",34.2688,-118.2374,1540.5
CI.MTP.,CI,MTP,,"BHE,HHN,HHZ,BHZ,HHE,BHN",35.48434,-115.5532,1588.0
CI.MUR.,CI,MUR,,"BHE,HHN,HHZ,BHZ,HHE,BHN",33.59999,-117.19543,562.0
CI.MWC.,CI,MWC,,"BHE,EHN,EHZ,EHE,HHN,HHZ,BHZ,HHE,BHN",34.22362,-118.05832,1725.0
CI.NBS.,CI,NBS,,"BHE,HHN,HHZ,BHZ,HHE,BHN",34.78035,-116.55798,590.0
CI.NCH.,CI,NCH,,"BHE,HHN,HHZ,BHZ,HHE,BHN",34.9427,-119.67395,665.0
CI.NEE.,CI,NEE,,"BHE,HHN,HHZ,BHZ,HHE,BHN",34.8249,-114.59941,170.0
CI.NEE2.,CI,NEE2,,"BHE,HHN,HHZ,BHZ,HHE,BHN",34.76759,-114.61881,271.0
CI.NEN.,CI,NEN,,"BHE,EHZ,HHN,HHZ,BHZ,HHE,BHN",34.77539,-118.50099,859.0
CI.NHL.,CI,NHL,,EHZ,34.39148,-118.59946,542.0
CI.NJQ.,CI,NJQ,,"BHE,HHN,HHZ,BHZ,HHE,BHN",34.53412,-120.17737,219.0
CI.NOT.,CI,NOT,,EHZ,34.22869,-118.55829,247.5
CI.NPN.,CI,NPN,,EHZ,35.467388,-115.268509,935.1
CI.NSS.,CI,NSS,,"BHE,HHN,HHZ,BHZ,HHE,BHN",33.5561,-115.9465,-16.0
CI.NSS2.,CI,NSS2,,"BHE,HHN,HHZ,BHZ,HHE,BHN",33.55553,-115.94586,17.0
CI.NW2.,CI,NW2,,EHZ,33.08732,-115.69266,-100.0
CI.NWH.,CI,NWH,,EHZ,33.733138,-117.751087,95.8
CI.NWR.,CI,NWR,,EHZ,33.10174,-115.68427,-117.0
CI.OAK.,CI,OAK,,EHZ,34.36363,-118.78439,832.0
CI.OAT.,CI,OAT,,"BHE,EHZ,HHN,HHZ,BHZ,HHE,BHN",34.34361,-118.61442,1089.0
CI.OBB.,CI,OBB,,EHZ,33.1674,-115.63744,-107.0
CI.OCP.,CI,OCP,,"BHE,EHZ,HHN,HHZ,BHZ,HHE,BHN",32.74755,-116.01931,155.1
CI.OGC.,CI,OGC,,EHZ,33.78816,-117.844,64.0
CI.OKV.,CI,OKV,,EHZ,34.39697,-119.29874,124.0
CI.OLI.,CI,OLI,,"BHE,HHN,HHZ,BHZ,HHE,BHN",33.94539,-117.92372,162.0
CI.OLP.,CI,OLP,,"BHE,HHN,HHZ,BHZ,HHE,BHN",32.60771,-116.93019,159.0
CI.OLY.,CI,OLY,,EHZ,33.43142,-117.11806,446.0
CI.ORK.,CI,ORK,,EHZ,33.56623,-115.76994,1039.0
CI.OSI.,CI,OSI,,"BHE,HHN,HHZ,BHZ,HHE,BHN",34.6145,-118.7235,718.0
CI.PALA.,CI,PALA,,"BHE,HHN,HHZ,BHZ,HHE,BHN",33.38905,-117.03182,552.0
CI.PAS.,CI,PAS,,"BHE,EHN,EHZ,EHE,HHN,HHZ,BHZ,HHE,BHN",34.14844,-118.17117,314.0
CI.PASA.,CI,PASA,,"BHE,HHN,HHZ,BHZ,HHE,BHN",34.14844,-118.17113,307.8
CI.PASC.00,CI,PASC,00,"BHE,HHN,HHZ,BHZ,HHE,BHN",34.17141,-118.18523,341.0
CI.PASC.10,CI,PASC,10,"BHE,HHN,HHZ,BHZ,HHE,BHN",34.17141,-118.18523,341.0
CI.PCF.,CI,PCF,,EHZ,34.05304,-117.79144,226.0
CI.PDE.,CI,PDE,,"BHE,HHN,HHZ,BHZ,HHE,BHN",34.44199,-118.58215,328.0
CI.PDM.,CI,PDM,,"BHE,HHN,HHZ,BHZ,HHE,BHN",34.30336,-114.14152,144.0
CI.PDR.,CI,PDR,,"BHE,HHN,HHZ,BHZ,HHE,BHN",33.96273,-118.43702,45.0
CI.PDU.,CI,PDU,,"BHE,HHN,HHZ,BHZ,HHE,BHN",34.1207,-117.63808,445.0
CI.PDW.,CI,PDW,,EHZ,33.92397,-117.61713,166.0
CI.PEM.,CI,PEM,,EHZ,34.16689,-117.87009,777.0
CI.PER.,CI,PER,,"BHE,HHN,HHZ,BHZ,HHE,BHN",33.86164,-117.20529,468.0
CI.PFO.,CI,PFO,,"BHE,BHZ,BHN",33.61164,-116.45858,1288.0
CI.PGA.,CI,PGA,,"BHE,EHZ,HHN,HHZ,BHZ,HHE,BHN",33.4914,-117.0635,351.5
CI.PHL.,CI,PHL,,"BHE,HHN,HHZ,BHZ,HHE,BHN",35.40773,-120.54556,355.0
CI.PIC.,CI,PIC,,EHZ,32.91425,-114.64391,265.8
CI.PIU.,CI,PIU,,EHZ,34.74036,-115.09477,1163.0
CI.PKM.,CI,PKM,,EHZ,34.89556,-119.82084,1673.0
CI.PLC.,CI,PLC,,"BHE,HHN,HHZ,BHZ,HHE,BHN",33.82436,-116.51195,130.0
CI.PLE.,CI,PLE,,EHZ,34.96857,-119.06899,1050.0
CI.PLM.,CI,PLM,,"BHE,EHN,EHZ,EHE,HHN,HHZ,BHZ,HHE,BHN",33.35361,-116.86265,1691.0
CI.PLR.,CI,PLR,,"BHE,HHN,HHZ,BHZ,HHE,BHN",33.17349,-115.977744,54.9
CI.PLS.,CI,PLS,,"BHE,EHN,EHZ,EHE,HHN,HHZ,BHZ,HHE,BHN",33.7953,-117.60906,1199.0
CI.PLT.,CI,PLT,,EHZ,32.73123,-114.73012,26.0
CI.PMD.,CI,PMD,,"BHE,HHN,HHZ,BHZ,HHE,BHN",33.64785,-116.37769,296.0
CI.PNM.,CI,PNM,,EHZ,33.97738,-115.80161,1101.0
CI.POB.,CI,POB,,EHZ,33.68699,-116.92402,974.0
CI.POB2.,CI,POB2,,"BHE,HHN,HHZ,BHZ,HHE,BHN",33.68708,-116.92382,999.0
CI.POP.,CI,POP,,"BHE,HHN,HHZ,BHZ,HHE,BHN",34.728508,-118.39402,842.0
CI.POR.,CI,POR,,"BHE,HHN,HHZ,BHZ,HHE,BHN",36.10368,-119.00343,198.0
CI.PRR.,CI,PRR,,EHZ,33.78,-117.23333,440.0
CI.PSD.,CI,PSD,,"BHE,HHN,HHZ,BHZ,HHE,BHN",33.82393,-116.55026,144.0
CI.PSP.,CI,PSP,,EHZ,33.79371,-116.54968,162.0
CI.PSR.,CI,PSR,,"BHE,HHN,HHZ,BHZ,HHE,BHN",34.09181,-117.80709,305.0
CI.PTD.,CI,PTD,,"BHE,EHZ,HHN,HHZ,BHZ,HHE,BHN",34.00443,-118.80686,7.0
CI.PUT.,CI,PUT,,"BHE,EHZ,HHN,HHZ,BHZ,HHE,BHN",34.69115,-117.96919,747.0
CI.PVR.,CI,PVR,,EHZ,33.75237,-118.37171,153.0
CI.PZA.,CI,PZA,,"BHE,HHN,HHZ,BHZ,HHE,BHN",35.3558,-120.2524,778.7
CI.Q335.,CI,Q335,,"HHN,HHZ,HHE",34.136187,-118.127443,232.0
CI.Q335.A0,CI,Q335,A0,"HHN,HHZ,HHE",34.136187,-118.127443,232.0
CI.Q335.B0,CI,Q335,B0,"HHN,HHZ,HHE",34.136187,-118.127443,232.0
CI.QAD.,CI,QAD,,"BHE,EHZ,HHN,HHZ,BHZ,HHE,BHN",34.42367,-119.60926,68.0
CI.QAL.,CI,QAL,,EHZ,34.74909,-118.71518,1232.0
CI.QLC.,CI,QLC,,"BHE,HHN,HHZ,BHZ,HHE,BHN",35.04084,-119.97425,556.9
CI.QUG.,CI,QUG,,EHZ,34.39558,-118.49837,515.0
CI.RAG.,CI,RAG,,"BHE,EHZ,HHN,HHZ,BHZ,HHE,BHN",34.68289,-116.15139,722.0
CI.RAY.,CI,RAY,,EHZ,34.03749,-116.81306,2369.0
CI.RCH.,CI,RCH,,EHZ,34.30736,-116.3513,909.2
CI.RCR.,CI,RCR,,"BHE,HHN,HHZ,BHZ,HHE,BHN",33.36237,-116.3096,193.0
CI.RCT.,CI,RCT,,"BHE,EHZ,HHN,HHZ,BHZ,HHE,BHN",36.30523,-119.24384,107.0
CI.RCU.,CI,RCU,,EHZ,34.08309,-117.52442,329.9
CI.RDM.,CI,RDM,,EHZ,34.40002,-117.18415,1455.9
CI.RFR.,CI,RFR,,"BHE,HHN,HHZ,BHZ,HHE,BHN",35.113583,-120.097209,386.3
CI.RG2.,CI,RG2,,EHZ,35.74883,-117.629,658.0
CI.RGC.,CI,RGC,,EHZ,35.8408,-117.6606,693.0
CI.RHC.,CI,RHC,,EHZ,34.00094,-118.0131,364.0
CI.RHC2.,CI,RHC2,,"BHE,HHN,HHZ,BHZ,HHE,BHN",34.00095,-118.01333,362.0
CI.RHM.,CI,RHM,,EHZ,32.14167,-115.28333,20.0
CI.RHR.,CI,RHR,,"BHE,HHN,HHZ,BHZ,HHE,BHN",33.290213,-117.176482,173.0
CI.RIN.,CI,RIN,,"BHE,HHN,HHZ,BHZ,HHE,BHN",34.28196,-118.47925,304.0
CI.RIO.,CI,RIO,,"BHE,HHN,HHZ,BHZ,HHE,BHN",34.10473,-117.97956,118.0
CI.RKMO.,CI,RKMO,,"BHE,HHN,HHZ,BHZ,HHE,BHN",33.67421,-117.60947,408.0
CI.RMM.,CI,RMM,,"BHE,EHZ,HHN,HHZ,BHZ,HHE,BHN",34.64384,-116.62438,1777.0
CI.RMR.,CI,RMR,,EHZ,34.21283,-116.5763,1663.0
CI.ROD.,CI,ROD,,EHZ,34.62969,-116.60564,1247.0
CI.RPK.,CI,RPK,,"BHE,HHN,HHZ,BHZ,HHE,BHN",36.217982,-117.085375,3045.6
CI.RPV.,CI,RPV,,"BHE,HHN,HHZ,BHZ,HHE,BHN",33.74346,-118.40412,107.0
CI.RRC.,CI,RRC,,"BHE,HHN,HHZ,BHZ,HHE,BHN",35.372816,-117.989768,789.0
CI.RRS.,CI,RRS,,EHZ,33.88217,-117.36646,420.0
CI.RRX.,CI,RRX,,"BHE,HHN,HHZ,BHZ,HHE,BHN",34.87499,-116.99681,676.2
CI.RSE.,CI,RSE,,EHZ,32.92558,-115.49993,-90.0
CI.RSI.,CI,RSI,,"BHE,HHN,HHZ,BHZ,HHE,BHN",34.85191,-120.20868,181.3
CI.RSP.,CI,RSP,,"BHE,HHN,HHZ,BHZ,HHE,BHN",34.196664,-117.126075,1645.8
CI.RSS.,CI,RSS,,"BHE,HHN,HHZ,BHZ,HHE,BHN",33.97327,-117.32674,298.0
CI.RUN.,CI,RUN,,"BHE,EHZ,HHN,HHZ,BHZ,HHE,BHN",32.97222,-114.97809,116.0
CI.RUS.,CI,RUS,,"BHE,HHN,HHZ,BHZ,HHE,BHN",34.05075,-118.08078,70.0
CI.RVM.,CI,RVM,,EHZ,34.18022,-114.20107,246.7
CI.RVR.,CI,RVR,,"BHE,EHN,EHZ,EHE,HHN,HHZ,BHZ,HHE,BHN",33.99351,-117.37545,266.0
CI.RVS.,CI,RVS,,EHZ,34.03472,-114.51875,629.0
CI.RXH.,CI,RXH,,"BHE,HHN,HHZ,BHZ,HHE,BHN",33.18313,-115.62257,-59.0
CI.RYS.,CI,RYS,,EHZ,34.64341,-119.35224,1807.0
CI.SAD.,CI,SAD,,EHZ,34.08087,-118.66554,715.0
CI.SAI.,CI,SAI,,EHZ,34.01333,-119.43717,113.0
CI.SAL.,CI,SAL,,"BHE,EHZ,HHN,HHZ,BHZ,HHE,BHN",33.2801,-115.98585,14.0
CI.SAN.,CI,SAN,,EHZ,33.70432,-117.88578,11.0
CI.SBA.,CI,SBA,,EHZ,34.01335,-119.43803,66.0
CI.SBB.,CI,SBB,,EHZ,34.68817,-117.82501,796.0
CI.SBB2.,CI,SBB2,,"BHE,HHN,HHZ,BHZ,HHE,BHN",34.68844,-117.82424,825.0
CI.SBC.,CI,SBC,,"BHE,EHN,EHZ,EHE,HHN,HHZ,BHZ,HHE,BHN",34.44076,-119.71492,94.0
CI.SBI.,CI,SBI,,"BHE,HHN,HHZ,BHZ,HHE,BHN",33.48046,-119.02986,41.0
CI.SBK.,CI,SBK,,EHZ,35.07914,-117.58287,851.0
CI.SBPX.,CI,SBPX,,"BHE,HHN,HHZ,BHZ,HHE,BHN",34.2324,-117.23484,1860.0
CI.SCC.,CI,SCC,,EHZ,34.94094,-120.17297,565.0
CI.SCD.,CI,SCD,,EHZ,34.36841,-119.34467,183.0
CI.SCI.,CI,SCI,,"BHE,EHN,EHZ,EHE,HHN,HHZ,BHZ,HHE,BHN",32.9799,-118.54697,199.0
CI.SCI2.,CI,SCI2,,"BHE,HHN,HHZ,BHZ,HHE,BHN",32.9799,-118.54697,199.0
CI.SCY.,CI,SCY,,EHZ,34.10647,-118.45533,250.0
CI.SCZ.,CI,SCZ,,"BHE,HHN,HHZ,BHZ,HHE,BHN",33.99532,-119.63435,413.0
CI.SCZ2.,CI,SCZ2,,"BHE,HHN,HHZ,BHZ,HHE,BHN",33.99543,-119.6351,440.0
CI.SDD.,CI,SDD,,"BHE,HHN,HHZ,BHZ,HHE,BHN",33.55259,-117.66171,120.0
CI.SDG.,CI,SDG,,"BHE,HHN,HHZ,BHZ,HHE,BHN",32.784,-117.13805,101.0
CI.SDL.,CI,SDL,,EHZ,35.37652,-117.88838,638.0
CI.SDP.,CI,SDP,,"BHE,HHN,HHZ,BHZ,HHE,BHN",34.56547,-120.50137,631.0
CI.SDR.,CI,SDR,,"BHE,HHN,HHZ,BHZ,HHE,BHN",32.73561,-116.94241,113.0
CI.SDW.,CI,SDW,,EHZ,34.60953,-117.07593,1125.0
CI.SES.,CI,SES,,"BHE,HHN,HHZ,BHZ,HHE,BHN",34.43692,-119.1375,480.0
CI.SEV.,CI,SEV,,"BHE,HHN,HHZ,BHZ,HHE,BHN",35.58926,-117.28686,612.1
CI.SGL.,CI,SGL,,"BHE,EHZ,HHN,HHZ,BHZ,HHE,BHN",32.64933,-115.72638,75.0
CI.SHE.,CI,SHE,,EHZ,34.23869,-115.71349,750.0
CI.SHH.,CI,SHH,,EHZ,34.18771,-115.65528,1075.0
CI.SHO.,CI,SHO,,"BHE,HHN,HHZ,BHZ,HHE,BHN",35.89953,-116.2753,451.0
CI.SHR.,CI,SHR,,"BHE,HHN,HHZ,BHZ,HHE,BHN",36.49113,-118.84505,929.6
CI.SHU.,CI,SHU,,"BHE,EHZ,HHN,HHZ,BHZ,HHE,BHN",34.64279,-118.16454,774.0
CI.SIL.,CI,SIL,,"BHE,EHZ,HHN,HHZ,BHZ,HHE,BHN",34.34803,-116.82747,1698.0
CI.SIM.,CI,SIM,,EHZ,35.35017,-119.99653,578.0
CI.SIO.,CI,SIO,,EHZ,34.293,-119.1646,78.0
CI.SIP.,CI,SIP,,EHZ,34.20453,-118.78073,694.0
CI.SJQ.,CI,SJQ,,EHZ,33.62004,-117.84583,118.0
CI.SJU.,CI,SJU,,EHZ,33.48725,-117.68114,-3.0
CI.SKY.,CI,SKY,,EHZ,33.77575,-117.10712,774.0
CI.SLA.,CI,SLA,,"BHE,HHN,HHZ,BHZ,HHE,BHN",35.89095,-117.28332,1174.0
CI.SLB.,CI,SLB,,"BHE,HHN,HHZ,BHZ,HHE,BHN",33.48519,-115.86643,0.0
CI.SLC.,CI,SLC,,EHZ,34.49593,-119.71435,1164.0
CI.SLG.,CI,SLG,,EHZ,34.10946,-119.06496,381.0
CI.SLH.,CI,SLH,,"BHE,HHN,HHZ,BHZ,HHE,BHN",33.19269,-116.25399,208.0
CI.SLM.,CI,SLM,,"BHE,EHZ,HHN,HHZ,BHZ,HHE,BHN",34.45227,-118.42267,523.0
CI.SLP.,CI,SLP,,EHZ,34.55353,-120.39819,113.0
CI.SLR.,CI,SLR,,"BHE,HHN,HHZ,BHZ,HHE,BHN",33.83359,-116.79737,1567.0
CI.SLT.,CI,SLT,,EHZ,33.26488,-115.9242,-83.0
CI.SLU.,CI,SLU,,EHZ,32.50176,-114.77807,-8.0
CI.SLV.,CI,SLV,,"BHE,HHN,HHZ,BHZ,HHE,BHN",33.23854,-115.30436,254.6
CI.SMB.,CI,SMB,,"BHE,HHN,HHZ,BHZ,HHE,BHN",34.90218,-120.44709,74.0
CI.SME.,CI,SME,,EHZ,33.82288,-117.35623,466.0
CI.SMF.,CI,SMF,,EHZ,34.02159,-118.44675,19.0
CI.SMF2.,CI,SMF2,,"BHE,HHN,HHZ,BHZ,HHE,BHN",34.02201,-118.44627,52.2
CI.SMI.,CI,SMI,,"BHE,HHN,HHZ,BHZ,HHE,BHN",34.03818,-120.35132,165.0
CI.SMM.,CI,SMM,,"BHE,HHN,HHZ,BHZ,HHE,BHN",35.3142,-119.99581,599.0
CI.SMO.,CI,SMO,,EHZ,33.53561,-116.46239,2403.0
CI.SMR.,CI,SMR,,"BHE,HHN,HHZ,BHZ,HHE,BHN",35.37699,-120.61247,341.0
CI.SMS.,CI,SMS,,"BHE,HHN,HHZ,BHZ,HHE,BHN",34.01438,-118.45617,43.0
CI.SMT.,CI,SMT,,EHZ,34.33364,-119.01381,683.0
CI.SMTC.,CI,SMTC,,"BHE,HHN,HHZ,BHZ,HHE,BHN",32.94892,-115.72031,39.0
CI.SMV.,CI,SMV,,EHZ,34.27091,-118.74407,276.0
CI.SMW.,CI,SMW,,"BHE,HHN,HHZ,BHZ,HHE,BHN",35.01108,-120.40997,169.0
CI.SNCC.,CI,SNCC,,"BHE,HHN,HHZ,BHZ,HHE,BHN",33.24787,-119.52437,275.0
CI.SND.,CI,SND,,"HHN,HHZ,HHE,EHZ",35.14264,-118.30286,1294.0
CI.SNO.,CI,SNO,,"BHE,HHN,HHZ,BHZ,HHE,BHN",34.03515,-116.80778,2339.0
CI.SNR.,CI,SNR,,"BHE,EHN,EHZ,EHE,HHN,HHZ,BHZ,HHE,BHN",32.86184,-115.43602,-63.0
CI.SNS.,CI,SNS,,EHZ,33.43239,-117.55047,117.0
CI.SOC.,CI,SOC,,"BHE,HHN,HHZ,BHZ,HHE,BHN",33.38761,-117.58013,52.0
CI.SOF.,CI,SOF,,"BHE,HHN,HHZ,BHZ,HHE,BHN",33.37055,-117.5574,10.0
CI.SOL2.,CI,SOL2,,"BHE,HHN,HHZ,BHZ,HHE,BHN",34.4365,-118.289273,708.9
CI.SOT.,CI,SOT,,"BHE,HHN,HHZ,BHZ,HHE,BHN",34.416,-118.449,409.0
CI.SPF.,CI,SPF,,"BHE,HHN,HHZ,BHZ,HHE,BHN",34.05933,-118.64614,470.0
CI.SPG.,CI,SPG,,"BHE,HHN,HHZ,BHZ,HHE,BHN",36.1355,-118.81099,314.0
CI.SPG2.,CI,SPG2,,"BHE,HHN,HHZ,BHZ,HHE,BHN",36.20057,-118.76624,627.0
CI.SPH.,CI,SPH,,EHZ,33.74667,-118.33467,445.0
CI.SPM.,CI,SPM,,EHZ,34.47204,-115.40344,918.2
CI.SQC.,CI,SQC,,"BHE,EHZ,HHN,HHZ,BHZ,HHE,BHN",34.866469,-120.294393,130.0
CI.SRA.,CI,SRA,,"BHE,HHN,HHZ,BHZ,HHE,BHN",34.60601,-115.94987,338.6
CI.SRI.,CI,SRI,,"BHE,HHN,HHZ,BHZ,HHE,BHN",33.97875,-120.07886,392.0
CI.SRN.,CI,SRN,,"BHE,HHN,HHZ,BHZ,HHE,BHN",33.82854,-117.78938,208.0
CI.SRT.,CI,SRT,,"BHE,EHZ,HHN,HHZ,BHZ,HHE,BHN",35.69235,-117.75051,667.0
CI.SS2.,CI,SS2,,EHZ,34.20734,-117.50039,1574.0
CI.SS3.,CI,SS3,,"BHE,HHN,HHZ,BHZ,HHE,BHN",34.20772,-117.499668,1605.5
CI.SSC.,CI,SSC,,"EHE,EHN,EHZ",33.99546,-119.63513,413.0
CI.SSM.,CI,SSM,,EHZ,34.03734,-120.35106,126.0
CI.SSN.,CI,SSN,,EHZ,33.24494,-119.50737,217.0
CI.SSS.,CI,SSS,,"BHE,EHZ,HHN,HHZ,BHZ,HHE,BHN",34.03103,-117.45498,337.1
CI.SSV.,CI,SSV,,EHZ,34.21703,-117.48982,1550.0
CI.SSW.,CI,SSW,,"BHE,HHN,HHZ,BHZ,HHE,BHN",33.17747,-115.61564,-64.0
CI.STC.,CI,STC,,"BHE,HHN,HHZ,BHZ,HHE,BHN",34.30302,-119.18676,180.0
CI.STG.,CI,STG,,"BHE,HHN,HHZ,BHZ,HHE,BHN",33.664,-117.76856,49.0
CI.STO.,CI,STO,,EHZ,34.69199,-117.11727,1145.0
CI.STP.,CI,STP,,EHZ,34.57121,-114.84876,581.0
CI.STS.,CI,STS,,"BHE,HHN,HHZ,BHZ,HHE,BHN",33.79033,-118.19878,4.0
CI.STT.,CI,STT,,EHZ,34.78904,-118.46361,796.0
CI.SU2.,CI,SU2,,EHZ,32.94483,-115.8,160.8
CI.SUN.,CI,SUN,,"BHE,EHZ,HHN,HHZ,BHZ,HHE,BHN",34.21023,-117.694194,1652.0
CI.SUP.,CI,SUP,,EHZ,32.95537,-115.82547,177.0
CI.SVD.,CI,SVD,,"BHE,HHN,HHZ,BHZ,HHE,BHN",34.10647,-117.09822,605.0
CI.SWM.,CI,SWM,,"EHE,EHN,EHZ",34.71605,-118.58362,1184.0
CI.SWP.,CI,SWP,,"BHE,HHN,HHZ,BHZ,HHE,BHN",32.79184,-116.09718,265.0
CI.SWS.,CI,SWS,,"BHE,EHZ,HHN,HHZ,BHZ,HHE,BHN",32.94508,-115.79988,140.0
CI.SXT.,CI,SXT,,EHZ,34.3379,-119.2148,488.0
CI.SYL.,CI,SYL,,EHZ,34.3536,-118.45098,928.0
CI.SYN.,CI,SYN,,"BHE,HHN,HHZ,BHZ,HHE,BHN",34.60723,-120.0696,201.0
CI.SYP.,CI,SYP,,"BHE,EHZ,HHN,HHZ,BHZ,HHE,BHN",34.52781,-119.97832,1278.0
CI.SYS.,CI,SYS,,EHZ,32.57936,-116.91486,181.0
CI.TA2.,CI,TA2,,"BHE,HHN,HHZ,BHZ,HHE,BHN",34.38203,-117.67822,2249.0
CI.TAB.,CI,TAB,,"BHE,EHZ,HHN,HHZ,BHZ,HHE,BHN",34.38245,-117.68191,2274.0
CI.TCC.,CI,TCC,,EHZ,33.99465,-118.01397,195.0
CI.TEH.,CI,TEH,,"BHE,HHN,HHZ,BHZ,HHE,BHN",35.2913,-118.42079,846.0
CI.TEJ.,CI,TEJ,,"BHE,EHZ,HHN,HHZ,BHZ,HHE,BHN",35.23107,-118.68878,650.0
CI.TER.,CI,TER,,EHZ,35.33141,-119.36455,90.0
CI.TER2.,CI,TER2,,"BHE,HHN,HHZ,BHZ,HHE,BHN",35.33233,-119.36238,80.0
CI.TFT.,CI,TFT,,"BHE,HHN,HHZ,BHZ,HHE,BHN",35.14592,-119.41946,233.0
CI.THC.,CI,THC,,EHZ,34.90853,-118.66443,1688.0
CI.THM.,CI,THM,,"BHE,HHN,HHZ,BHZ,HHE,BHN",33.65066,-116.07734,60.0
CI.THP.,CI,THP,,EHZ,33.83172,-116.33896,121.1
CI.THR.,CI,THR,,EHZ,34.55319,-117.71916,980.0
CI.THX.,CI,THX,,"BHE,HHN,HHZ,BHZ,HHE,BHN",33.63495,-116.16402,-31.0
CI.TIN.,CI,TIN,,"BHE,EHN,EHZ,EHE,HHN,HHZ,BHZ,HHE,BHN",37.05422,-118.23009,1197.0
CI.TJR.,CI,TJR,,"BHE,EHZ,HHN,HHZ,BHZ,HHE,BHN",35.02722,-118.74373,398.0
CI.TM2.,CI,TM2,,EHZ,35.08687,-119.53541,989.0
CI.TM3.,CI,TM3,,EHZ,35.08691,-119.53593,1037.0
CI.TMB.,CI,TMB,,EHZ,35.08727,-119.53553,978.0
CI.TOP.,CI,TOP,,EHZ,33.52405,-116.42529,2611.0
CI.TOR.,CI,TOR,,"BHE,HHN,HHZ,BHZ,HHE,BHN",33.57526,-116.22584,4.0
CI.TOV.,CI,TOV,,"BHE,HHN,HHZ,BHZ,HHE,BHN",34.15607,-118.82039,298.0
CI.TOW.,CI,TOW,,EHZ,35.80885,-117.76493,653.0
CI.TOW2.,CI,TOW2,,"BHE,HHN,HHZ,BHZ,HHE,BHN",35.80856,-117.76488,685.0
CI.TPC.,CI,TPC,,EHZ,34.10564,-116.04939,686.0
CI.TPM.,CI,TPM,,EHZ,34.36266,-116.08201,1049.0
CI.TPO.,CI,TPO,,"BHE,EHZ,HHN,HHZ,BHZ,HHE,BHN",34.87883,-118.22864,769.0
CI.TTM.,CI,TTM,,EHZ,34.33537,-114.82826,1101.1
CI.TUQ.,CI,TUQ,,"BHE,HHN,HHZ,BHZ,HHE,BHN",35.43584,-115.92389,1350.0
CI.TWL.,CI,TWL,,EHZ,34.27827,-118.59548,352.0
CI.UPL.,CI,UPL,,"EHE,EHN,EHZ",34.14817,-117.6994,516.0
CI.USC.,CI,USC,,"BHE,HHN,HHZ,BHZ,HHE,BHN",34.01919,-118.28631,58.0
CI.VCP.,CI,VCP,,EHZ,33.23934,-117.02125,426.9
CI.VCS.,CI,VCS,,"BHE,HHN,HHZ,BHZ,HHE,BHN",34.48372,-118.11781,992.0
CI.VDJ.,CI,VDJ,,"BHE,HHN,HHZ,BHZ,HHE,BHN",34.18986,-114.57145,284.6
CI.VES.,CI,VES,,"BHE,HHN,HHZ,BHZ,HHE,BHN",35.84089,-119.08469,154.0
CI.VET.,CI,VET,,"EHE,EHN,EHZ",34.29678,-118.02833,1757.0
CI.VG2.,CI,VG2,,EHZ,33.83254,-116.81041,1465.0
CI.VGR.,CI,VGR,,EHZ,33.83754,-116.80963,1455.0
CI.VLO.,CI,VLO,,"BHE,EHZ,HHN,HHZ,BHZ,HHE,BHN",32.97181,-116.41064,518.0
CI.VLY.,CI,VLY,,"BHE,EHZ,HHN,HHZ,BHZ,HHE,BHN",33.736134,-117.156523,445.8
CI.VOG.,CI,VOG,,"BHE,HHN,HHZ,BHZ,HHE,BHN",36.32098,-119.38226,90.0
CI.VPD.,CI,VPD,,EHZ,33.81596,-117.76338,147.0
CI.VRD.,CI,VRD,,EHZ,34.21459,-118.27964,897.0
CI.VST.,CI,VST,,EHZ,33.15585,-117.232,76.0
CI.VTV.,CI,VTV,,"BHE,HHN,HHZ,BHZ,HHE,BHN",34.56065,-117.3296,843.0
CI.VVD.,CI,VVD,,EHZ,34.4435,-118.66332,451.0
CI.WAS.,CI,WAS,,EHZ,35.7377,-118.55743,1828.0
CI.WAS2.,CI,WAS2,,"BHE,HHN,HHZ,BHZ,HHE,BHN",35.7377,-118.55743,1828.0
CI.WBM.,CI,WBM,,"BHE,EHZ,HHN,HHZ,BHZ,HHE,BHN",35.60839,-117.89049,892.0
CI.WBP.,CI,WBP,,"BHE,HHN,HHZ,BHZ,HHE,BHN",35.87841,-118.07414,2494.6
CI.WBS.,CI,WBS,,"BHE,EHZ,HHN,HHZ,BHZ,HHE,BHN",35.53664,-118.14035,1927.0
CI.WCF.,CI,WCF,,EHZ,36.20831,-117.90469,1332.0
CI.WCH.,CI,WCH,,EHZ,35.87887,-118.07405,2461.0
CI.WCO.,CI,WCO,,EHZ,35.62248,-118.43836,1567.0
CI.WCP.,CI,WCP,,"EHN,EHZ",36.07098,-117.85102,1453.0
CI.WCS.,CI,WCS,,EHZ,36.02702,-117.76761,1135.0
CI.WCS2.,CI,WCS2,,"BHE,HHN,HHZ,BHZ,HHE,BHN",36.02521,-117.76526,1143.0
CI.WCX.,CI,WCX,,EHZ,35.71155,-117.59448,654.0
CI.WDY.,CI,WDY,,"EHE,EHN,EHZ",35.69998,-118.84421,457.0
CI.WER.,CI,WER,,"BHE,HHN,HHZ,BHZ,HHE,BHN",35.06053,-119.02711,130.0
CI.WES.,CI,WES,,"BHE,HHN,HHZ,BHZ,HHE,BHN",32.75904,-115.73161,-8.0
CI.WGR.,CI,WGR,,"BHE,HHN,HHZ,BHZ,HHE,BHN",34.51085,-119.27407,554.0
CI.WH2.,CI,WH2,,EHZ,34.31455,-114.40992,1198.0
CI.WHF.,CI,WHF,,"BHE,EHZ,HHN,HHZ,BHZ,HHE,BHN",35.69513,-118.35183,859.0
CI.WHS.,CI,WHS,,EHZ,36.10508,-117.76177,1411.0
CI.WHV.,CI,WHV,,EHZ,35.50989,-118.51904,971.0
CI.WI2.,CI,WI2,,"EHE,EHZ",33.27678,-115.58087,-63.0
CI.WIN.,CI,WIN,,EHZ,33.68299,-117.10366,600.0
CI.WIS.,CI,WIS,,"EHE,EHZ",33.27586,-115.5954,-102.0
CI.WJP.,CI,WJP,,EHZ,35.41094,-118.48196,1090.0
CI.WKT.,CI,WKT,,EHZ,35.79398,-118.44337,849.0
CI.WLH.,CI,WLH,,EHZ,36.15243,-118.31312,2645.0
CI.WLH2.,CI,WLH2,,"BHE,HHN,HHZ,BHZ,HHE,BHN",36.152072,-118.313186,2672.0
CI.WLK.,CI,WLK,,EHZ,33.05135,-115.49193,-82.0
CI.WLS.,CI,WLS,,EHZ,34.579612,-117.720112,888.0
CI.WLS2.,CI,WLS2,,"BHE,EHZ,HHN,HHZ,BHZ,HHE,BHN",34.578987,-117.719386,889.0
CI.WLT.,CI,WLT,,"BHE,HHN,HHZ,BHZ,HHE,BHN",34.00948,-117.95077,107.0
CI.WMD.,CI,WMD,,"BHE,HHN,HHZ,BHZ,HHE,BHN",33.03826,-115.58191,-45.0
CI.WMF.,CI,WMF,,EHZ,36.11774,-117.85484,1513.0
CI.WML.,CI,WML,,EHZ,33.01524,-115.62327,-92.0
CI.WNM.,CI,WNM,,"BHE,EHZ,HHN,HHZ,BHZ,HHE,BHN",35.8422,-117.90616,974.3
CI.WOF.,CI,WOF,,EHZ,35.53545,-118.71352,1306.0
CI.WOR.,CI,WOR,,"BHE,EHZ,HHN,HHZ,BHZ,HHE,BHN",35.69563,-118.24246,795.0
CI.WRC.,CI,WRC,,EHZ,35.94896,-117.64787,930.0
CI.WRC2.,CI,WRC2,,"BHE,HHN,HHZ,BHZ,HHE,BHN",35.9479,-117.65038,943.0
CI.WRV.,CI,WRV,,EHZ,36.00783,-117.89056,1039.0
CI.WRV2.,CI,WRV2,,"BHE,EHZ,HHN,HHZ,BHZ,HHE,BHN",36.00774,-117.8904,1070.0
CI.WS2.,CI,WS2,,EHZ,34.59417,-118.58033,1189.2
CI.WSC.,CI,WSC,,EHZ,35.70429,-117.88751,853.0
CI.WSH.,CI,WSH,,EHZ,35.59962,-117.49265,764.0
CI.WSP.,CI,WSP,,EHZ,34.59618,-118.57972,1188.0
CI.WSS.,CI,WSS,,"BHE,HHN,HHZ,BHZ,HHE,BHN",34.1717,-118.64971,316.0
CI.WTT.,CI,WTT,,"BHE,HHN,HHZ,BHZ,HHE,BHN",33.94869,-118.25547,37.0
CI.WTT2.,CI,WTT2,,"BHE,HHN,HHZ,BHZ,HHE,BHN",33.94867,-118.25539,37.0
CI.WVP.,CI,WVP,,EHZ,35.94945,-117.81724,1435.0
CI.WVP2.,CI,WVP2,,"BHE,EHZ,HHN,HHZ,BHZ,HHE,BHN",35.94939,-117.81769,1465.0
CI.WWC.,CI,WWC,,"BHE,HHN,HHZ,BHZ,HHE,BHN",33.94068,-116.40876,619.0
CI.WWF.,CI,WWF,,"BHE,EHZ,HHN,HHZ,BHZ,HHE,BHN",33.27884,-115.57888,-61.0
CI.WWP.,CI,WWP,,EHZ,35.73556,-118.08806,1117.0
CI.WWR.,CI,WWR,,EHZ,33.99007,-116.6558,655.0
CI.XMS.,CI,XMS,,EHZ,35.52314,-117.36418,667.0
CI.XTL.,CI,XTL,,EHZ,34.29597,-117.86223,1643.0
CI.XTL2.,CI,XTL2,,"BHE,HHN,HHZ,BHZ,HHE,BHN",34.295958,-117.862491,1677.8
CI.YAQ.,CI,YAQ,,EHZ,33.16661,-116.35386,430.0
CI.YEG.,CI,YEG,,EHZ,35.43658,-119.96009,907.0
CI.YEG2.,CI,YEG2,,"BHE,HHN,HHZ,BHZ,HHE,BHN",35.43831,-119.96306,963.0
CI.YMD.,CI,YMD,,EHZ,32.55395,-114.55352,39.0
CI.YUC.,CI,YUC,,EHZ,34.19675,-116.40576,1077.0
CI.YUH.,CI,YUH,,EHZ,32.64729,-115.92253,158.0
CI.YUH2.,CI,YUH2,,"BHE,HHN,HHZ,BHZ,HHE,BHN",32.64752,-115.92227,184.0
